[
  {
    "name": "Київ",
    "type": "city",
    "lat": 50.4500336,
    "lon": 30.5241361,
    "region": "Київська область"
  },
  {
    "name": "Чернігів",
    "type": "city",
    "lat": 51.494099,
    "lon": 31.294332,
    "region": "Чернігівська область"
  },
  {
    "name": "Одеса",
    "type": "city",
    "lat": 46.4843023,
    "lon": 30.7322878,
    "region": "Одеська область"
  },
  {
    "name": "Львів",
    "type": "city",
    "lat": 49.841952,
    "lon": 24.0315921,
    "region": "Львівська область"
  },
  {
    "name": "Бориспіль",
    "type": "town",
    "lat": 50.3512101,
    "lon": 30.95077,
    "region": "Київська область"
  },
  {
    "name": "Богодухів",
    "type": "town",
    "lat": 50.1601711,
    "lon": 35.5220539,
    "region": "Харківська область"
  },
  {
    "name": "Полтава",
    "type": "city",
    "lat": 49.5897423,
    "lon": 34.5507948,
    "region": "Полтавська область"
  },
  {
    "name": "Берестин",
    "type": "town",
    "lat": 49.3741326,
    "lon": 35.4494234,
    "region": "Харківська область"
  },
  {
    "name": "Запоріжжя",
    "type": "city",
    "lat": 47.8507859,
    "lon": 35.1182867,
    "region": "Запорізька область"
  },
  {
    "name": "Євпаторія",
    "type": "city",
    "lat": 45.1907635,
    "lon": 33.3679049,
    "region": "Автономна Республіка Крим"
  },
  {
    "name": "Маріуполь",
    "type": "city",
    "lat": 47.0957648,
    "lon": 37.5499621,
    "region": "Донецька область"
  },
  {
    "name": "Ірпінь",
    "type": "town",
    "lat": 50.5206777,
    "lon": 30.2448725,
    "region": "Київська область"
  },
  {
    "name": "Вишневе",
    "type": "town",
    "lat": 50.3917497,
    "lon": 30.3678999,
    "region": "Київська область"
  },
  {
    "name": "Боярка",
    "type": "town",
    "lat": 50.3356709,
    "lon": 30.2847595,
    "region": "Київська область"
  },
  {
    "name": "Донецьк",
    "type": "city",
    "lat": 48.0158753,
    "lon": 37.8013407,
    "region": "Донецька область"
  },
  {
    "name": "Миколаїв",
    "type": "city",
    "lat": 46.9758615,
    "lon": 31.9939666,
    "region": "Миколаївська область"
  },
  {
    "name": "Курахове",
    "type": "town",
    "lat": 47.9835214,
    "lon": 37.2826414,
    "region": "Донецька область"
  },
  {
    "name": "Ужгород",
    "type": "city",
    "lat": 48.6223731,
    "lon": 22.3022572,
    "region": "Закарпатська область"
  },
  {
    "name": "Чоп",
    "type": "town",
    "lat": 48.4313665,
    "lon": 22.2063694,
    "region": "Закарпатська область"
  },
  {
    "name": "Звягель",
    "type": "town",
    "lat": 50.5917622,
    "lon": 27.6066973,
    "region": "Житомирська область"
  },
  {
    "name": "Рівне",
    "type": "city",
    "lat": 50.6196175,
    "lon": 26.2513165,
    "region": "Рівненська область"
  },
  {
    "name": "Луцьк",
    "type": "city",
    "lat": 50.7450733,
    "lon": 25.320078,
    "region": "Волинська область"
  },
  {
    "name": "Ковель",
    "type": "town",
    "lat": 51.2120807,
    "lon": 24.7088806,
    "region": "Волинська область"
  },
  {
    "name": "Гадяч",
    "type": "town",
    "lat": 50.3701299,
    "lon": 33.9950534,
    "region": "Полтавська область"
  },
  {
    "name": "Стрий",
    "type": "town",
    "lat": 49.255875,
    "lon": 23.8530863,
    "region": "Львівська область"
  },
  {
    "name": "Умань",
    "type": "town",
    "lat": 48.7497621,
    "lon": 30.2203052,
    "region": "Черкаська область"
  },
  {
    "name": "Вінниця",
    "type": "city",
    "lat": 49.2320162,
    "lon": 28.467975,
    "region": "Вінницька область"
  },
  {
    "name": "Севастополь",
    "type": "city",
    "lat": 44.6054434,
    "lon": 33.5220842,
    "region": "Севастополь"
  },
  {
    "name": "Хмельницький",
    "type": "city",
    "lat": 49.4196404,
    "lon": 26.9793793,
    "region": "Хмельницька область"
  },
  {
    "name": "Житомир",
    "type": "city",
    "lat": 50.2601065,
    "lon": 28.6696281,
    "region": "Житомирська область"
  },
  {
    "name": "Сімферополь",
    "type": "city",
    "lat": 44.9521459,
    "lon": 34.1024858,
    "region": "Автономна Республіка Крим"
  },
  {
    "name": "Знам’янка",
    "type": "town",
    "lat": 48.7199609,
    "lon": 32.6659476,
    "region": "Кіровоградська область"
  },
  {
    "name": "Очаків",
    "type": "town",
    "lat": 46.6145957,
    "lon": 31.5452994,
    "region": "Миколаївська область"
  },
  {
    "name": "Луганськ",
    "type": "city",
    "lat": 48.5717084,
    "lon": 39.2973153,
    "region": "Луганська область"
  },
  {
    "name": "Алчевськ",
    "type": "city",
    "lat": 48.4701987,
    "lon": 38.8010178,
    "region": "Луганська область"
  },
  {
    "name": "Трускавець",
    "type": "town",
    "lat": 49.2782012,
    "lon": 23.5059668,
    "region": "Львівська область"
  },
  {
    "name": "Берегове",
    "type": "town",
    "lat": 48.2050985,
    "lon": 22.6453246,
    "region": "Закарпатська область"
  },
  {
    "name": "Алушта",
    "type": "town",
    "lat": 44.677112,
    "lon": 34.4095393,
    "region": "Автономна Республіка Крим"
  },
  {
    "name": "Біла Церква",
    "type": "city",
    "lat": 49.7969703,
    "lon": 30.1158069,
    "region": "Київська область"
  },
  {
    "name": "Коростишів",
    "type": "town",
    "lat": 50.3201518,
    "lon": 29.0584885,
    "region": "Житомирська область"
  },
  {
    "name": "Херсон",
    "type": "city",
    "lat": 46.6401295,
    "lon": 32.6143922,
    "region": "Херсонська область"
  },
  {
    "name": "Джанкой",
    "type": "town",
    "lat": 45.7119746,
    "lon": 34.3927394,
    "region": "Автономна Республіка Крим"
  },
  {
    "name": "Моспине",
    "type": "town",
    "lat": 47.8813092,
    "lon": 38.0746792,
    "region": "Донецька область"
  },
  {
    "name": "Бахмут",
    "type": "town",
    "lat": 48.5894123,
    "lon": 38.0020994,
    "region": "Донецька область"
  },
  {
    "name": "Соледар",
    "type": "town",
    "lat": 48.6956698,
    "lon": 38.0671791,
    "region": "Донецька область"
  },
  {
    "name": "Часів Яр",
    "type": "town",
    "lat": 48.5873911,
    "lon": 37.8373367,
    "region": "Донецька область"
  },
  {
    "name": "Горлівка",
    "type": "city",
    "lat": 48.3058686,
    "lon": 38.0027664,
    "region": "Донецька область"
  },
  {
    "name": "Миронівський",
    "type": "town",
    "lat": 48.4620526,
    "lon": 38.2754689,
    "region": "Донецька область"
  },
  {
    "name": "Дебальцеве",
    "type": "town",
    "lat": 48.3396839,
    "lon": 38.3999096,
    "region": "Донецька область"
  },
  {
    "name": "Торецьк",
    "type": "town",
    "lat": 48.3970469,
    "lon": 37.8501378,
    "region": "Донецька область"
  },
  {
    "name": "Світлодарськ",
    "type": "town",
    "lat": 48.43803,
    "lon": 38.22349,
    "region": "Донецька область"
  },
  {
    "name": "Північне",
    "type": "town",
    "lat": 48.3866143,
    "lon": 37.9018986,
    "region": "Донецька область"
  },
  {
    "name": "Нью-Йорк",
    "type": "town",
    "lat": 48.3320198,
    "lon": 37.8365875,
    "region": "Донецька область"
  },
  {
    "name": "Мирноград",
    "type": "town",
    "lat": 48.30791,
    "lon": 37.2591,
    "region": "Донецька область"
  },
  {
    "name": "Залізне",
    "type": "town",
    "lat": 48.3734757,
    "lon": 37.8822759,
    "region": "Донецька область"
  },
  {
    "name": "Білицьке",
    "type": "town",
    "lat": 48.4078477,
    "lon": 37.176481,
    "region": "Донецька область"
  },
  {
    "name": "Новодонецьке",
    "type": "town",
    "lat": 48.6342604,
    "lon": 36.9819183,
    "region": "Донецька область"
  },
  {
    "name": "Докучаєвськ",
    "type": "town",
    "lat": 47.7499257,
    "lon": 37.6715943,
    "region": "Донецька область"
  },
  {
    "name": "Білозерське",
    "type": "town",
    "lat": 48.53313,
    "lon": 37.05791,
    "region": "Донецька область"
  },
  {
    "name": "Олексієво-Дружківка",
    "type": "town",
    "lat": 48.5785754,
    "lon": 37.6044657,
    "region": "Донецька область"
  },
  {
    "name": "Дружківка",
    "type": "town",
    "lat": 48.6198614,
    "lon": 37.524945,
    "region": "Донецька область"
  },
  {
    "name": "Софіївка",
    "type": "town",
    "lat": 48.270333,
    "lon": 38.144668,
    "region": "Донецька область"
  },
  {
    "name": "Бунге",
    "type": "town",
    "lat": 48.2213624,
    "lon": 38.2875306,
    "region": "Донецька область"
  },
  {
    "name": "Вуглегірськ",
    "type": "town",
    "lat": 48.3119524,
    "lon": 38.2609048,
    "region": "Донецька область"
  },
  {
    "name": "Старий Крим",
    "type": "town",
    "lat": 47.1606073,
    "lon": 37.4909237,
    "region": "Донецька область"
  },
  {
    "name": "Сартана",
    "type": "town",
    "lat": 47.1701321,
    "lon": 37.6952892,
    "region": "Донецька область"
  },
  {
    "name": "Жданівка",
    "type": "town",
    "lat": 48.1570316,
    "lon": 38.2565049,
    "region": "Донецька область"
  },
  {
    "name": "Біленьке",
    "type": "town",
    "lat": 48.7592059,
    "lon": 37.6177633,
    "region": "Донецька область"
  },
  {
    "name": "Костянтинівка",
    "type": "town",
    "lat": 48.534859,
    "lon": 37.6923705,
    "region": "Донецька область"
  },
  {
    "name": "Ясногірка",
    "type": "town",
    "lat": 48.7786606,
    "lon": 37.5536569,
    "region": "Донецька область"
  },
  {
    "name": "Лиман",
    "type": "town",
    "lat": 48.9801314,
    "lon": 37.8168012,
    "region": "Донецька область"
  },
  {
    "name": "Родинське",
    "type": "town",
    "lat": 48.3536652,
    "lon": 37.2034069,
    "region": "Донецька область"
  },
  {
    "name": "Покровськ",
    "type": "town",
    "lat": 48.2771086,
    "lon": 37.1772482,
    "region": "Донецька область"
  },
  {
    "name": "Макіївка",
    "type": "city",
    "lat": 48.0448144,
    "lon": 37.9635093,
    "region": "Донецька область"
  },
  {
    "name": "Нижня Кринка",
    "type": "town",
    "lat": 48.1137043,
    "lon": 38.1665891,
    "region": "Донецька область"
  },
  {
    "name": "Українськ",
    "type": "town",
    "lat": 48.09471,
    "lon": 37.35866,
    "region": "Донецька область"
  },
  {
    "name": "Гірник",
    "type": "town",
    "lat": 48.0567943,
    "lon": 37.3723976,
    "region": "Донецька область"
  },
  {
    "name": "Сніжне",
    "type": "town",
    "lat": 48.0220754,
    "lon": 38.7634612,
    "region": "Донецька область"
  },
  {
    "name": "Миколаївка",
    "type": "town",
    "lat": 48.8610868,
    "lon": 37.7619191,
    "region": "Донецька область"
  },
  {
    "name": "Слов’янськ",
    "type": "city",
    "lat": 48.8522691,
    "lon": 37.6058241,
    "region": "Донецька область"
  },
  {
    "name": "Новогродівка",
    "type": "town",
    "lat": 48.1997174,
    "lon": 37.3399704,
    "region": "Донецька область"
  },
  {
    "name": "Селидове",
    "type": "town",
    "lat": 48.15015,
    "lon": 37.3018921,
    "region": "Донецька область"
  },
  {
    "name": "Сєверне",
    "type": "town",
    "lat": 48.0829812,
    "lon": 38.6855636,
    "region": "Донецька область"
  },
  {
    "name": "Пелагіївка",
    "type": "town",
    "lat": 48.09282,
    "lon": 38.60887,
    "region": "Донецька область"
  },
  {
    "name": "Розсипне",
    "type": "town",
    "lat": 48.1303138,
    "lon": 38.5664541,
    "region": "Донецька область"
  },
  {
    "name": "Чистякове",
    "type": "town",
    "lat": 48.0261217,
    "lon": 38.618137,
    "region": "Донецька область"
  },
  {
    "name": "Іловайськ",
    "type": "town",
    "lat": 47.9248328,
    "lon": 38.1976205,
    "region": "Донецька область"
  },
  {
    "name": "Харцизьк",
    "type": "town",
    "lat": 48.0339524,
    "lon": 38.149804,
    "region": "Донецька область"
  },
  {
    "name": "Вугледар",
    "type": "town",
    "lat": 47.7809924,
    "lon": 37.2460771,
    "region": "Донецька область"
  },
  {
    "name": "Шахтарськ",
    "type": "town",
    "lat": 48.0550423,
    "lon": 38.4459474,
    "region": "Донецька область"
  },
  {
    "name": "Ясинувата",
    "type": "town",
    "lat": 48.1270606,
    "lon": 37.8590172,
    "region": "Донецька область"
  },
  {
    "name": "Амвросіївка",
    "type": "town",
    "lat": 47.7952806,
    "lon": 38.4798317,
    "region": "Донецька область"
  },
  {
    "name": "Сіверськ",
    "type": "town",
    "lat": 48.8676267,
    "lon": 38.0902435,
    "region": "Донецька область"
  },
  {
    "name": "Велика Новосілка",
    "type": "town",
    "lat": 47.8436751,
    "lon": 36.8396472,
    "region": "Донецька область"
  },
  {
    "name": "Володимирівка",
    "type": "town",
    "lat": 47.7266739,
    "lon": 37.405817,
    "region": "Донецька область"
  },
  {
    "name": "Волноваха",
    "type": "town",
    "lat": 47.6014517,
    "lon": 37.4934079,
    "region": "Донецька область"
  },
  {
    "name": "Донське",
    "type": "town",
    "lat": 47.5159927,
    "lon": 37.5375497,
    "region": "Донецька область"
  },
  {
    "name": "Новотроїцьке",
    "type": "town",
    "lat": 47.7167369,
    "lon": 37.5817221,
    "region": "Донецька область"
  },
  {
    "name": "Микільське",
    "type": "town",
    "lat": 47.2004406,
    "lon": 37.3162144,
    "region": "Донецька область"
  },
  {
    "name": "Новоазовськ",
    "type": "town",
    "lat": 47.1138718,
    "lon": 38.0830911,
    "region": "Донецька область"
  },
  {
    "name": "Красногорівка",
    "type": "town",
    "lat": 48.01068,
    "lon": 37.50449,
    "region": "Донецька область"
  },
  {
    "name": "Мар’їнка",
    "type": "town",
    "lat": 47.9401242,
    "lon": 37.5022312,
    "region": "Донецька область"
  },
  {
    "name": "Ялта",
    "type": "town",
    "lat": 46.9589448,
    "lon": 37.2776416,
    "region": "Донецька область"
  },
  {
    "name": "Мангуш",
    "type": "town",
    "lat": 47.0568106,
    "lon": 37.3078191,
    "region": "Донецька область"
  },
  {
    "name": "Билбасівка",
    "type": "town",
    "lat": 48.8402826,
    "lon": 37.5075495,
    "region": "Донецька область"
  },
  {
    "name": "Новий Світ",
    "type": "town",
    "lat": 47.8066532,
    "lon": 38.0211415,
    "region": "Донецька область"
  },
  {
    "name": "Старобешеве",
    "type": "town",
    "lat": 47.749822,
    "lon": 38.0252111,
    "region": "Донецька область"
  },
  {
    "name": "Кальміуське",
    "type": "town",
    "lat": 47.6687951,
    "lon": 38.0739208,
    "region": "Донецька область"
  },
  {
    "name": "Бердянськ",
    "type": "city",
    "lat": 46.755678,
    "lon": 36.7887623,
    "region": "Запорізька область"
  },
  {
    "name": "Нововолинськ",
    "type": "town",
    "lat": 50.7224829,
    "lon": 24.1648399,
    "region": "Волинська область"
  },
  {
    "name": "Володимир",
    "type": "town",
    "lat": 50.8474669,
    "lon": 24.319319,
    "region": "Волинська область"
  },
  {
    "name": "Любомль",
    "type": "town",
    "lat": 51.2234546,
    "lon": 24.0315783,
    "region": "Волинська область"
  },
  {
    "name": "Шацьк",
    "type": "town",
    "lat": 51.4909494,
    "lon": 23.9219323,
    "region": "Волинська область"
  },
  {
    "name": "Іваничі",
    "type": "town",
    "lat": 50.6405719,
    "lon": 24.3614426,
    "region": "Волинська область"
  },
  {
    "name": "Шептицький",
    "type": "town",
    "lat": 50.3940289,
    "lon": 24.2396098,
    "region": "Львівська область"
  },
  {
    "name": "Жовква",
    "type": "town",
    "lat": 50.056134,
    "lon": 23.9711967,
    "region": "Львівська область"
  },
  {
    "name": "Сокаль",
    "type": "town",
    "lat": 50.4791313,
    "lon": 24.2770538,
    "region": "Львівська область"
  },
  {
    "name": "Городок",
    "type": "town",
    "lat": 49.784596,
    "lon": 23.6465626,
    "region": "Львівська область"
  },
  {
    "name": "Яремче",
    "type": "town",
    "lat": 48.4504129,
    "lon": 24.550955,
    "region": "Івано-Франківська область"
  },
  {
    "name": "Чугуїв",
    "type": "town",
    "lat": 49.836626,
    "lon": 36.6899391,
    "region": "Харківська область"
  },
  {
    "name": "Черкаси",
    "type": "city",
    "lat": 49.4447056,
    "lon": 32.0588085,
    "region": "Черкаська область"
  },
  {
    "name": "Суми",
    "type": "city",
    "lat": 50.9119775,
    "lon": 34.8027723,
    "region": "Сумська область"
  },
  {
    "name": "Кременчук",
    "type": "city",
    "lat": 49.0629553,
    "lon": 33.403516,
    "region": "Полтавська область"
  },
  {
    "name": "Нікополь",
    "type": "city",
    "lat": 47.5692061,
    "lon": 34.3917272,
    "region": "Дніпропетровська область"
  },
  {
    "name": "Павлоград",
    "type": "city",
    "lat": 48.5316759,
    "lon": 35.8703695,
    "region": "Дніпропетровська область"
  },
  {
    "name": "Тисмениця",
    "type": "town",
    "lat": 48.9018102,
    "lon": 24.8484719,
    "region": "Івано-Франківська область"
  },
  {
    "name": "Кельменці",
    "type": "town",
    "lat": 48.4654946,
    "lon": 26.8318791,
    "region": "Чернівецька область"
  },
  {
    "name": "Хотин",
    "type": "town",
    "lat": 48.5068418,
    "lon": 26.4859086,
    "region": "Чернівецька область"
  },
  {
    "name": "Кам’янець-Подільський",
    "type": "city",
    "lat": 48.6781294,
    "lon": 26.5854027,
    "region": "Хмельницька область"
  },
  {
    "name": "Івано-Франківськ",
    "type": "city",
    "lat": 48.9224763,
    "lon": 24.710334,
    "region": "Івано-Франківська область"
  },
  {
    "name": "Вараш",
    "type": "town",
    "lat": 51.3481736,
    "lon": 25.8500623,
    "region": "Рівненська область"
  },
  {
    "name": "Борзна",
    "type": "town",
    "lat": 51.2534475,
    "lon": 32.4263156,
    "region": "Чернігівська область"
  },
  {
    "name": "Краматорськ",
    "type": "city",
    "lat": 48.7389415,
    "lon": 37.5843812,
    "region": "Донецька область"
  },
  {
    "name": "Коломия",
    "type": "town",
    "lat": 48.5259211,
    "lon": 25.0380538,
    "region": "Івано-Франківська область"
  },
  {
    "name": "Вашківці",
    "type": "town",
    "lat": 48.3820192,
    "lon": 25.5174954,
    "region": "Чернівецька область"
  },
  {
    "name": "Заставна",
    "type": "town",
    "lat": 48.5235845,
    "lon": 25.8455783,
    "region": "Чернівецька область"
  },
  {
    "name": "Кіцмань",
    "type": "town",
    "lat": 48.4410982,
    "lon": 25.7667616,
    "region": "Чернівецька область"
  },
  {
    "name": "Новодністровськ",
    "type": "town",
    "lat": 48.58485,
    "lon": 27.4311004,
    "region": "Чернівецька область"
  },
  {
    "name": "Новоселиця",
    "type": "town",
    "lat": 48.2179594,
    "lon": 26.2664831,
    "region": "Чернівецька область"
  },
  {
    "name": "Сокиряни",
    "type": "town",
    "lat": 48.4460307,
    "lon": 27.411193,
    "region": "Чернівецька область"
  },
  {
    "name": "Сторожинець",
    "type": "town",
    "lat": 48.1629489,
    "lon": 25.7207993,
    "region": "Чернівецька область"
  },
  {
    "name": "Гребінка",
    "type": "town",
    "lat": 50.1206044,
    "lon": 32.4289258,
    "region": "Полтавська область"
  },
  {
    "name": "Лубни",
    "type": "town",
    "lat": 50.0118206,
    "lon": 33.0030821,
    "region": "Полтавська область"
  },
  {
    "name": "Клішківці",
    "type": "village",
    "lat": 48.430443,
    "lon": 26.259632,
    "region": "Чернівецька область"
  },
  {
    "name": "Колінківці",
    "type": "village",
    "lat": 48.410507,
    "lon": 26.139727,
    "region": "Чернівецька область"
  },
  {
    "name": "Ланчин",
    "type": "town",
    "lat": 48.5554737,
    "lon": 24.7523396,
    "region": "Івано-Франківська область"
  },
  {
    "name": "Вишгород",
    "type": "town",
    "lat": 50.5824332,
    "lon": 30.485121,
    "region": "Київська область"
  },
  {
    "name": "Бахчисарай",
    "type": "town",
    "lat": 44.7522963,
    "lon": 33.8534782,
    "region": "Автономна Республіка Крим"
  },
  {
    "name": "Бородянка",
    "type": "town",
    "lat": 50.6437677,
    "lon": 29.9278296,
    "region": "Київська область"
  },
  {
    "name": "Ямпіль",
    "type": "town",
    "lat": 48.2455558,
    "lon": 28.2852657,
    "region": "Вінницька область"
  },
  {
    "name": "Збараж",
    "type": "town",
    "lat": 49.6607393,
    "lon": 25.7768485,
    "region": "Тернопільська область"
  },
  {
    "name": "Козелець",
    "type": "town",
    "lat": 50.9160647,
    "lon": 31.1167509,
    "region": "Чернігівська область"
  },
  {
    "name": "Щолкіне",
    "type": "town",
    "lat": 45.4291446,
    "lon": 35.8222792,
    "region": "Автономна Республіка Крим"
  },
  {
    "name": "Леніне",
    "type": "town",
    "lat": 45.297284,
    "lon": 35.7758985,
    "region": "Автономна Республіка Крим"
  },
  {
    "name": "Борщів",
    "type": "town",
    "lat": 48.8025557,
    "lon": 26.0401871,
    "region": "Тернопільська область"
  },
  {
    "name": "Бережани",
    "type": "town",
    "lat": 49.4450296,
    "lon": 24.938854,
    "region": "Тернопільська область"
  },
  {
    "name": "Бучач",
    "type": "town",
    "lat": 49.0630503,
    "lon": 25.389969,
    "region": "Тернопільська область"
  },
  {
    "name": "Заліщики",
    "type": "town",
    "lat": 48.6536489,
    "lon": 25.7310915,
    "region": "Тернопільська область"
  },
  {
    "name": "Зборів",
    "type": "town",
    "lat": 49.6645222,
    "lon": 25.1386197,
    "region": "Тернопільська область"
  },
  {
    "name": "Кременець",
    "type": "town",
    "lat": 50.0960966,
    "lon": 25.7260783,
    "region": "Тернопільська область"
  },
  {
    "name": "Ланівці",
    "type": "town",
    "lat": 49.8734191,
    "lon": 26.0780148,
    "region": "Тернопільська область"
  },
  {
    "name": "Монастириська",
    "type": "town",
    "lat": 49.0908395,
    "lon": 25.1717816,
    "region": "Тернопільська область"
  },
  {
    "name": "Почаїв",
    "type": "town",
    "lat": 50.0017638,
    "lon": 25.5110926,
    "region": "Тернопільська область"
  },
  {
    "name": "Теребовля",
    "type": "town",
    "lat": 49.2960742,
    "lon": 25.692491,
    "region": "Тернопільська область"
  },
  {
    "name": "Хоростків",
    "type": "town",
    "lat": 49.2121531,
    "lon": 25.9168525,
    "region": "Тернопільська область"
  },
  {
    "name": "Чортків",
    "type": "town",
    "lat": 49.0160555,
    "lon": 25.7925191,
    "region": "Тернопільська область"
  },
  {
    "name": "Шумськ",
    "type": "town",
    "lat": 50.1183638,
    "lon": 26.1186214,
    "region": "Тернопільська область"
  },
  {
    "name": "Болехів",
    "type": "town",
    "lat": 49.0663203,
    "lon": 23.8598949,
    "region": "Івано-Франківська область"
  },
  {
    "name": "Бурштин",
    "type": "town",
    "lat": 49.2621603,
    "lon": 24.6159932,
    "region": "Івано-Франківська область"
  },
  {
    "name": "Галич",
    "type": "town",
    "lat": 49.123317,
    "lon": 24.7299495,
    "region": "Івано-Франківська область"
  },
  {
    "name": "Городенка",
    "type": "town",
    "lat": 48.6720598,
    "lon": 25.4952722,
    "region": "Івано-Франківська область"
  },
  {
    "name": "Долина",
    "type": "town",
    "lat": 48.9782308,
    "lon": 23.9789588,
    "region": "Івано-Франківська область"
  },
  {
    "name": "Калуш",
    "type": "town",
    "lat": 49.028894,
    "lon": 24.3613198,
    "region": "Івано-Франківська область"
  },
  {
    "name": "Косів",
    "type": "town",
    "lat": 48.315802,
    "lon": 25.0983417,
    "region": "Івано-Франківська область"
  },
  {
    "name": "Надвірна",
    "type": "town",
    "lat": 48.6335887,
    "lon": 24.5684038,
    "region": "Івано-Франківська область"
  },
  {
    "name": "Рогатин",
    "type": "town",
    "lat": 49.4092703,
    "lon": 24.6105811,
    "region": "Івано-Франківська область"
  },
  {
    "name": "Снятин",
    "type": "town",
    "lat": 48.4523142,
    "lon": 25.5518046,
    "region": "Івано-Франківська область"
  },
  {
    "name": "Тлумач",
    "type": "town",
    "lat": 48.8665866,
    "lon": 25.0011978,
    "region": "Івано-Франківська область"
  },
  {
    "name": "Буча",
    "type": "town",
    "lat": 50.5503127,
    "lon": 30.2106925,
    "region": "Київська область"
  },
  {
    "name": "Волочиськ",
    "type": "town",
    "lat": 49.5358446,
    "lon": 26.2126215,
    "region": "Хмельницька область"
  },
  {
    "name": "Городок",
    "type": "town",
    "lat": 49.1652124,
    "lon": 26.5865127,
    "region": "Хмельницька область"
  },
  {
    "name": "Деражня",
    "type": "town",
    "lat": 49.2686082,
    "lon": 27.4337581,
    "region": "Хмельницька область"
  },
  {
    "name": "Дунаївці",
    "type": "town",
    "lat": 48.886649,
    "lon": 26.8476798,
    "region": "Хмельницька область"
  },
  {
    "name": "Ізяслав",
    "type": "town",
    "lat": 50.1194691,
    "lon": 26.8207625,
    "region": "Хмельницька область"
  },
  {
    "name": "Красилів",
    "type": "town",
    "lat": 49.6544431,
    "lon": 26.9709084,
    "region": "Хмельницька область"
  },
  {
    "name": "Нетішин",
    "type": "town",
    "lat": 50.3338348,
    "lon": 26.6496599,
    "region": "Хмельницька область"
  },
  {
    "name": "Славута",
    "type": "town",
    "lat": 50.2962398,
    "lon": 26.8658254,
    "region": "Хмельницька область"
  },
  {
    "name": "Шепетівка",
    "type": "town",
    "lat": 50.1809437,
    "lon": 27.0651783,
    "region": "Хмельницька область"
  },
  {
    "name": "Борислав",
    "type": "town",
    "lat": 49.2824381,
    "lon": 23.4138765,
    "region": "Львівська область"
  },
  {
    "name": "Броди",
    "type": "town",
    "lat": 50.0833041,
    "lon": 25.1437921,
    "region": "Львівська область"
  },
  {
    "name": "Буськ",
    "type": "town",
    "lat": 49.965355,
    "lon": 24.6089531,
    "region": "Львівська область"
  },
  {
    "name": "Винники",
    "type": "town",
    "lat": 49.8168013,
    "lon": 24.1381342,
    "region": "Львівська область"
  },
  {
    "name": "Дрогобич",
    "type": "town",
    "lat": 49.3513996,
    "lon": 23.5061662,
    "region": "Львівська область"
  },
  {
    "name": "Дубляни",
    "type": "town",
    "lat": 49.9026751,
    "lon": 24.0876223,
    "region": "Львівська область"
  },
  {
    "name": "Жидачів",
    "type": "town",
    "lat": 49.3831172,
    "lon": 24.1426813,
    "region": "Львівська область"
  },
  {
    "name": "Кам’янка-Бузька",
    "type": "town",
    "lat": 50.104744,
    "lon": 24.3452815,
    "region": "Львівська область"
  },
  {
    "name": "Овруч",
    "type": "town",
    "lat": 51.3259771,
    "lon": 28.8026718,
    "region": "Житомирська область"
  },
  {
    "name": "Вознесенськ",
    "type": "town",
    "lat": 47.5679582,
    "lon": 31.3338636,
    "region": "Миколаївська область"
  },
  {
    "name": "Новий Розділ",
    "type": "town",
    "lat": 49.4696071,
    "lon": 24.1386133,
    "region": "Львівська область"
  },
  {
    "name": "Требухів",
    "type": "village",
    "lat": 50.4832553,
    "lon": 30.9011179,
    "region": "Київська область"
  },
  {
    "name": "Рахів",
    "type": "town",
    "lat": 48.0556765,
    "lon": 24.2057063,
    "region": "Закарпатська область"
  },
  {
    "name": "Судак",
    "type": "town",
    "lat": 44.8488369,
    "lon": 34.971099,
    "region": "Автономна Республіка Крим"
  },
  {
    "name": "Носівка",
    "type": "town",
    "lat": 50.9377744,
    "lon": 31.5812258,
    "region": "Чернігівська область"
  },
  {
    "name": "Руська Лозова",
    "type": "village",
    "lat": 50.1416829,
    "lon": 36.2862923,
    "region": "Харківська область"
  },
  {
    "name": "Золочів",
    "type": "town",
    "lat": 50.2790531,
    "lon": 35.9824347,
    "region": "Харківська область"
  },
  {
    "name": "Середина-Буда",
    "type": "town",
    "lat": 52.1886906,
    "lon": 34.0306022,
    "region": "Сумська область"
  },
  {
    "name": "Семенівка",
    "type": "town",
    "lat": 52.17853,
    "lon": 32.57755,
    "region": "Чернігівська область"
  },
  {
    "name": "Хутір-Михайлівський",
    "type": "town",
    "lat": 52.0476694,
    "lon": 33.9429257,
    "region": "Сумська область"
  },
  {
    "name": "Новгород-Сіверський",
    "type": "town",
    "lat": 52.004259,
    "lon": 33.2779899,
    "region": "Чернігівська область"
  },
  {
    "name": "Свеса",
    "type": "town",
    "lat": 51.94816,
    "lon": 33.93299,
    "region": "Сумська область"
  },
  {
    "name": "Ямпіль",
    "type": "town",
    "lat": 51.9481126,
    "lon": 33.778454,
    "region": "Сумська область"
  },
  {
    "name": "Городня",
    "type": "town",
    "lat": 51.8915393,
    "lon": 31.595545,
    "region": "Чернігівська область"
  },
  {
    "name": "Шостка",
    "type": "town",
    "lat": 51.864355,
    "lon": 33.4728542,
    "region": "Сумська область"
  },
  {
    "name": "Сновськ",
    "type": "town",
    "lat": 51.8187527,
    "lon": 31.9448953,
    "region": "Чернігівська область"
  },
  {
    "name": "Ріпки",
    "type": "town",
    "lat": 51.8036433,
    "lon": 31.0931453,
    "region": "Чернігівська область"
  },
  {
    "name": "Вороніж",
    "type": "town",
    "lat": 51.7778331,
    "lon": 33.4660287,
    "region": "Сумська область"
  },
  {
    "name": "Корюківка",
    "type": "town",
    "lat": 51.7744549,
    "lon": 32.2512927,
    "region": "Чернігівська область"
  },
  {
    "name": "Любешів",
    "type": "town",
    "lat": 51.7632795,
    "lon": 25.5048264,
    "region": "Волинська область"
  },
  {
    "name": "Глухів",
    "type": "town",
    "lat": 51.67831,
    "lon": 33.9093,
    "region": "Сумська область"
  },
  {
    "name": "Ратне",
    "type": "town",
    "lat": 51.67145,
    "lon": 24.52458,
    "region": "Волинська область"
  },
  {
    "name": "Камінь-Каширський",
    "type": "town",
    "lat": 51.6271153,
    "lon": 24.961357,
    "region": "Волинська область"
  },
  {
    "name": "Дубровиця",
    "type": "town",
    "lat": 51.5709462,
    "lon": 26.5660889,
    "region": "Рівненська область"
  },
  {
    "name": "Кролевець",
    "type": "town",
    "lat": 51.5548654,
    "lon": 33.3875984,
    "region": "Сумська область"
  },
  {
    "name": "Славутич",
    "type": "town",
    "lat": 51.5201397,
    "lon": 30.7562301,
    "region": "Київська область"
  },
  {
    "name": "Мена",
    "type": "town",
    "lat": 51.52279,
    "lon": 32.21638,
    "region": "Чернігівська область"
  },
  {
    "name": "Сосниця",
    "type": "town",
    "lat": 51.5244906,
    "lon": 32.5028975,
    "region": "Чернігівська область"
  },
  {
    "name": "Стара Вижівка",
    "type": "town",
    "lat": 51.4422955,
    "lon": 24.438565,
    "region": "Волинська область"
  },
  {
    "name": "Володимирець",
    "type": "town",
    "lat": 51.4197839,
    "lon": 26.1392078,
    "region": "Рівненська область"
  },
  {
    "name": "Куликівка",
    "type": "town",
    "lat": 51.3735623,
    "lon": 31.6455818,
    "region": "Чернігівська область"
  },
  {
    "name": "Путивль",
    "type": "town",
    "lat": 51.3359821,
    "lon": 33.8715451,
    "region": "Сумська область"
  },
  {
    "name": "Сарни",
    "type": "town",
    "lat": 51.3350028,
    "lon": 26.6171275,
    "region": "Рівненська область"
  },
  {
    "name": "Маневичі",
    "type": "town",
    "lat": 51.2908106,
    "lon": 25.537878,
    "region": "Волинська область"
  },
  {
    "name": "Рокитне",
    "type": "town",
    "lat": 51.2681354,
    "lon": 27.2214931,
    "region": "Рівненська область"
  },
  {
    "name": "Конотоп",
    "type": "town",
    "lat": 51.2397495,
    "lon": 33.206675,
    "region": "Сумська область"
  },
  {
    "name": "Олевськ",
    "type": "town",
    "lat": 51.22272,
    "lon": 27.64881,
    "region": "Житомирська область"
  },
  {
    "name": "Буринь",
    "type": "town",
    "lat": 51.1960431,
    "lon": 33.8288042,
    "region": "Сумська область"
  },
  {
    "name": "Бахмач",
    "type": "town",
    "lat": 51.1826768,
    "lon": 32.8291034,
    "region": "Чернігівська область"
  },
  {
    "name": "Ворожба",
    "type": "town",
    "lat": 51.1722411,
    "lon": 34.2245008,
    "region": "Сумська область"
  },
  {
    "name": "Білопілля",
    "type": "town",
    "lat": 51.1460449,
    "lon": 34.3121992,
    "region": "Сумська область"
  },
  {
    "name": "Турійськ",
    "type": "town",
    "lat": 51.08299,
    "lon": 24.52389,
    "region": "Волинська область"
  },
  {
    "name": "Ніжин",
    "type": "town",
    "lat": 51.0464747,
    "lon": 31.8806289,
    "region": "Чернігівська область"
  },
  {
    "name": "Остер",
    "type": "town",
    "lat": 50.9508278,
    "lon": 30.8782419,
    "region": "Чернігівська область"
  },
  {
    "name": "Коростень",
    "type": "town",
    "lat": 50.9491068,
    "lon": 28.6417552,
    "region": "Житомирська область"
  },
  {
    "name": "Степанівка",
    "type": "town",
    "lat": 50.9417042,
    "lon": 34.6422099,
    "region": "Сумська область"
  },
  {
    "name": "Іванків",
    "type": "town",
    "lat": 50.93301,
    "lon": 29.9042867,
    "region": "Київська область"
  },
  {
    "name": "Десна",
    "type": "town",
    "lat": 50.9247792,
    "lon": 30.7729799,
    "region": "Чернігівська область"
  },
  {
    "name": "Рожище",
    "type": "town",
    "lat": 50.916332,
    "lon": 25.2712543,
    "region": "Волинська область"
  },
  {
    "name": "Костопіль",
    "type": "town",
    "lat": 50.8792198,
    "lon": 26.4533981,
    "region": "Рівненська область"
  },
  {
    "name": "Ємільчине",
    "type": "town",
    "lat": 50.872091,
    "lon": 27.8047443,
    "region": "Житомирська область"
  },
  {
    "name": "Ічня",
    "type": "town",
    "lat": 50.8623444,
    "lon": 32.3910144,
    "region": "Чернігівська область"
  },
  {
    "name": "Недригайлів",
    "type": "town",
    "lat": 50.8358991,
    "lon": 33.8782826,
    "region": "Сумська область"
  },
  {
    "name": "Талалаївка",
    "type": "town",
    "lat": 50.83168,
    "lon": 33.13442,
    "region": "Чернігівська область"
  },
  {
    "name": "Цумань",
    "type": "town",
    "lat": 50.82962,
    "lon": 25.88413,
    "region": "Волинська область"
  },
  {
    "name": "Ківерці",
    "type": "town",
    "lat": 50.8333448,
    "lon": 25.4648622,
    "region": "Волинська область"
  },
  {
    "name": "Городниця",
    "type": "town",
    "lat": 50.80627,
    "lon": 27.31407,
    "region": "Житомирська область"
  },
  {
    "name": "Краснопілля",
    "type": "town",
    "lat": 50.7712539,
    "lon": 35.2563391,
    "region": "Сумська область"
  },
  {
    "name": "Малин",
    "type": "town",
    "lat": 50.7677902,
    "lon": 29.2414346,
    "region": "Житомирська область"
  },
  {
    "name": "Іршанськ",
    "type": "town",
    "lat": 50.7504379,
    "lon": 28.721134,
    "region": "Житомирська область"
  },
  {
    "name": "Бобровиця",
    "type": "town",
    "lat": 50.7415033,
    "lon": 31.3860852,
    "region": "Чернігівська область"
  },
  {
    "name": "Клевань",
    "type": "town",
    "lat": 50.7464848,
    "lon": 26.006327,
    "region": "Рівненська область"
  },
  {
    "name": "Ромни",
    "type": "town",
    "lat": 50.74207,
    "lon": 33.4877,
    "region": "Сумська область"
  },
  {
    "name": "Зоря",
    "type": "village",
    "lat": 50.726673,
    "lon": 26.028698,
    "region": "Рівненська область"
  },
  {
    "name": "Нова Борова",
    "type": "town",
    "lat": 50.6933301,
    "lon": 28.6396035,
    "region": "Житомирська область"
  },
  {
    "name": "Пісківка",
    "type": "town",
    "lat": 50.6968561,
    "lon": 29.5931036,
    "region": "Київська область"
  },
  {
    "name": "Нові Петрівці",
    "type": "village",
    "lat": 50.6219956,
    "lon": 30.444609,
    "region": "Київська область"
  },
  {
    "name": "Хорошів",
    "type": "town",
    "lat": 50.5959845,
    "lon": 28.445337,
    "region": "Житомирська область"
  },
  {
    "name": "Гоща",
    "type": "town",
    "lat": 50.60466,
    "lon": 26.6827977,
    "region": "Рівненська область"
  },
  {
    "name": "Велика Димерка",
    "type": "town",
    "lat": 50.5913563,
    "lon": 30.9016229,
    "region": "Київська область"
  },
  {
    "name": "Гостомель",
    "type": "town",
    "lat": 50.58826,
    "lon": 30.25909,
    "region": "Київська область"
  },
  {
    "name": "Немішаєве",
    "type": "town",
    "lat": 50.56801,
    "lon": 30.1015029,
    "region": "Київська область"
  },
  {
    "name": "Горенка",
    "type": "village",
    "lat": 50.5595665,
    "lon": 30.3122576,
    "region": "Київська область"
  },
  {
    "name": "Квасилів",
    "type": "town",
    "lat": 50.5582459,
    "lon": 26.2623998,
    "region": "Рівненська область"
  },
  {
    "name": "Липова Долина",
    "type": "town",
    "lat": 50.5637857,
    "lon": 33.7990004,
    "region": "Сумська область"
  },
  {
    "name": "Ворзель",
    "type": "town",
    "lat": 50.5457287,
    "lon": 30.1562891,
    "region": "Київська область"
  },
  {
    "name": "Ладан",
    "type": "town",
    "lat": 50.5135783,
    "lon": 32.5877381,
    "region": "Чернігівська область"
  },
  {
    "name": "Млинів",
    "type": "town",
    "lat": 50.5118774,
    "lon": 25.6126259,
    "region": "Рівненська область"
  },
  {
    "name": "Горохів",
    "type": "town",
    "lat": 50.4986166,
    "lon": 24.7600734,
    "region": "Волинська область"
  },
  {
    "name": "Радомишль",
    "type": "town",
    "lat": 50.4961812,
    "lon": 29.2289588,
    "region": "Житомирська область"
  },
  {
    "name": "Здолбунів",
    "type": "town",
    "lat": 50.518994,
    "lon": 26.2431096,
    "region": "Рівненська область"
  },
  {
    "name": "Варва",
    "type": "town",
    "lat": 50.4982561,
    "lon": 32.7228573,
    "region": "Чернігівська область"
  },
  {
    "name": "Згурівка",
    "type": "town",
    "lat": 50.4950666,
    "lon": 31.7691817,
    "region": "Київська область"
  },
  {
    "name": "Коцюбинське",
    "type": "town",
    "lat": 50.4904717,
    "lon": 30.3337903,
    "region": "Київська область"
  },
  {
    "name": "Здовбиця",
    "type": "village",
    "lat": 50.4993307,
    "lon": 26.2484113,
    "region": "Рівненська область"
  },
  {
    "name": "Тростянець",
    "type": "town",
    "lat": 50.48046,
    "lon": 34.96467,
    "region": "Сумська область"
  },
  {
    "name": "Княжичі",
    "type": "village",
    "lat": 50.4603562,
    "lon": 30.7861932,
    "region": "Київська область"
  },
  {
    "name": "Пулини",
    "type": "town",
    "lat": 50.4690331,
    "lon": 28.270617,
    "region": "Житомирська область"
  },
  {
    "name": "Черняхів",
    "type": "town",
    "lat": 50.45299,
    "lon": 28.66573,
    "region": "Житомирська область"
  },
  {
    "name": "Петропавлівська Борщагівка",
    "type": "village",
    "lat": 50.437199,
    "lon": 30.345961,
    "region": "Київська область"
  },
  {
    "name": "Велика Писарівка",
    "type": "town",
    "lat": 50.4253238,
    "lon": 35.4838569,
    "region": "Сумська область"
  },
  {
    "name": "Гореничі",
    "type": "village",
    "lat": 50.419331,
    "lon": 30.211489,
    "region": "Київська область"
  },
  {
    "name": "Софіївська Борщагівка",
    "type": "village",
    "lat": 50.41188,
    "lon": 30.365957,
    "region": "Київська область"
  },
  {
    "name": "Дубно",
    "type": "town",
    "lat": 50.4187918,
    "lon": 25.7455972,
    "region": "Рівненська область"
  },
  {
    "name": "Велика Олександрівка",
    "type": "village",
    "lat": 50.393509,
    "lon": 30.873413,
    "region": "Київська область"
  },
  {
    "name": "Заводське",
    "type": "town",
    "lat": 50.4052959,
    "lon": 33.3973661,
    "region": "Полтавська область"
  },
  {
    "name": "Білогородка",
    "type": "village",
    "lat": 50.390171,
    "lon": 30.22785,
    "region": "Київська область"
  },
  {
    "name": "Баришівка",
    "type": "town",
    "lat": 50.3645295,
    "lon": 31.3256722,
    "region": "Київська область"
  },
  {
    "name": "Лохвиця",
    "type": "town",
    "lat": 50.3595181,
    "lon": 33.2741725,
    "region": "Полтавська область"
  },
  {
    "name": "Тарасівка",
    "type": "village",
    "lat": 50.3372,
    "lon": 30.321604,
    "region": "Київська область"
  },
  {
    "name": "Козача Лопань",
    "type": "town",
    "lat": 50.3295857,
    "lon": 36.1921383,
    "region": "Харківська область"
  },
  {
    "name": "Острог",
    "type": "town",
    "lat": 50.329021,
    "lon": 26.5203627,
    "region": "Рівненська область"
  },
  {
    "name": "Березань",
    "type": "town",
    "lat": 50.3132713,
    "lon": 31.4689158,
    "region": "Київська область"
  },
  {
    "name": "Охтирка",
    "type": "town",
    "lat": 50.3115386,
    "lon": 34.8868923,
    "region": "Сумська область"
  },
  {
    "name": "Соснівка",
    "type": "town",
    "lat": 50.2909116,
    "lon": 24.2563161,
    "region": "Львівська область"
  },
  {
    "name": "Баранівка",
    "type": "town",
    "lat": 50.29369,
    "lon": 27.66666,
    "region": "Житомирська область"
  },
  {
    "name": "Яготин",
    "type": "town",
    "lat": 50.2758913,
    "lon": 31.7634861,
    "region": "Київська область"
  },
  {
    "name": "Брусилів",
    "type": "town",
    "lat": 50.28305,
    "lon": 29.51889,
    "region": "Житомирська область"
  },
  {
    "name": "Вовчанськ",
    "type": "town",
    "lat": 50.2928843,
    "lon": 36.9370028,
    "region": "Харківська область"
  },
  {
    "name": "Радехів",
    "type": "town",
    "lat": 50.2808744,
    "lon": 24.6397908,
    "region": "Львівська область"
  },
  {
    "name": "Глеваха",
    "type": "town",
    "lat": 50.259673,
    "lon": 30.3059171,
    "region": "Київська область"
  },
  {
    "name": "Пирятин",
    "type": "town",
    "lat": 50.2363032,
    "lon": 32.5010494,
    "region": "Полтавська область"
  },
  {
    "name": "Великі Мости",
    "type": "town",
    "lat": 50.240162,
    "lon": 24.1385486,
    "region": "Львівська область"
  },
  {
    "name": "Рава-Руська",
    "type": "town",
    "lat": 50.230654,
    "lon": 23.6240014,
    "region": "Львівська область"
  },
  {
    "name": "Калинівка",
    "type": "town",
    "lat": 50.2257254,
    "lon": 30.2261781,
    "region": "Київська область"
  },
  {
    "name": "Зіньків",
    "type": "town",
    "lat": 50.21026,
    "lon": 34.35768,
    "region": "Полтавська область"
  },
  {
    "name": "Слатине",
    "type": "town",
    "lat": 50.2091002,
    "lon": 36.1571998,
    "region": "Харківська область"
  },
  {
    "name": "Добротвір",
    "type": "town",
    "lat": 50.2053412,
    "lon": 24.385568,
    "region": "Львівська область"
  },
  {
    "name": "Новогуйвинське",
    "type": "town",
    "lat": 50.206917,
    "lon": 28.6918455,
    "region": "Житомирська область"
  },
  {
    "name": "Понінка",
    "type": "town",
    "lat": 50.19138,
    "lon": 27.56126,
    "region": "Хмельницька область"
  },
  {
    "name": "Озерне",
    "type": "town",
    "lat": 50.1808751,
    "lon": 28.735195,
    "region": "Житомирська область"
  },
  {
    "name": "Борова",
    "type": "town",
    "lat": 50.1699295,
    "lon": 30.1033125,
    "region": "Харківська область"
  },
  {
    "name": "Васильків",
    "type": "town",
    "lat": 50.178137,
    "lon": 30.3175045,
    "region": "Київська область"
  },
  {
    "name": "Судилків",
    "type": "village",
    "lat": 50.166321,
    "lon": 27.13142,
    "region": "Хмельницька область"
  },
  {
    "name": "Романів",
    "type": "town",
    "lat": 50.1476608,
    "lon": 27.9313692,
    "region": "Житомирська область"
  },
  {
    "name": "Українка",
    "type": "town",
    "lat": 50.1537167,
    "lon": 30.7420742,
    "region": "Київська область"
  },
  {
    "name": "Радивилів",
    "type": "town",
    "lat": 50.1279775,
    "lon": 25.2487069,
    "region": "Рівненська область"
  },
  {
    "name": "Обухів",
    "type": "town",
    "lat": 50.1101633,
    "lon": 30.6269696,
    "region": "Київська область"
  },
  {
    "name": "Дергачі",
    "type": "town",
    "lat": 50.1070567,
    "lon": 36.1205802,
    "region": "Харківська область"
  },
  {
    "name": "Циркуни",
    "type": "village",
    "lat": 50.0820419,
    "lon": 36.3870514,
    "region": "Харківська область"
  },
  {
    "name": "Фастів",
    "type": "town",
    "lat": 50.0799307,
    "lon": 29.9162821,
    "region": "Київська область"
  },
  {
    "name": "Новаки",
    "type": "village",
    "lat": 50.0677936,
    "lon": 32.9119349,
    "region": "Полтавська область"
  },
  {
    "name": "Переяслав",
    "type": "town",
    "lat": 50.0643984,
    "lon": 31.4447327,
    "region": "Київська область"
  },
  {
    "name": "Котельва",
    "type": "town",
    "lat": 50.0669582,
    "lon": 34.7613681,
    "region": "Полтавська область"
  },
  {
    "name": "Краснокутськ",
    "type": "town",
    "lat": 50.0625892,
    "lon": 35.1647821,
    "region": "Харківська область"
  },
  {
    "name": "Вільшани",
    "type": "town",
    "lat": 50.0513573,
    "lon": 35.8839188,
    "region": "Харківська область"
  },
  {
    "name": "Мала Данилівка",
    "type": "town",
    "lat": 50.0561227,
    "lon": 36.1706244,
    "region": "Харківська область"
  },
  {
    "name": "Чуднів",
    "type": "town",
    "lat": 50.0524287,
    "lon": 28.1153765,
    "region": "Житомирська область"
  },
  {
    "name": "Андрушівка",
    "type": "town",
    "lat": 50.0301392,
    "lon": 29.0222111,
    "region": "Житомирська область"
  },
  {
    "name": "Пересічне",
    "type": "town",
    "lat": 50.0160055,
    "lon": 35.9910899,
    "region": "Харківська область"
  },
  {
    "name": "Білогір’я",
    "type": "town",
    "lat": 50.0019489,
    "lon": 26.4166916,
    "region": "Хмельницька область"
  },
  {
    "name": "Солоницівка",
    "type": "town",
    "lat": 49.9986529,
    "lon": 36.0426856,
    "region": "Харківська область"
  },
  {
    "name": "Ржищів",
    "type": "town",
    "lat": 49.96822,
    "lon": 31.04118,
    "region": "Київська область"
  },
  {
    "name": "Миргород",
    "type": "town",
    "lat": 49.9658333,
    "lon": 33.6113889,
    "region": "Полтавська область"
  },
  {
    "name": "Пісочин",
    "type": "town",
    "lat": 49.9622881,
    "lon": 36.1239316,
    "region": "Харківська область"
  },
  {
    "name": "Коротич",
    "type": "town",
    "lat": 49.9517307,
    "lon": 36.0395802,
    "region": "Харківська область"
  },
  {
    "name": "Драбів",
    "type": "town",
    "lat": 49.9571433,
    "lon": 32.1410898,
    "region": "Черкаська область"
  },
  {
    "name": "Гребінки",
    "type": "town",
    "lat": 49.95346,
    "lon": 30.1763499,
    "region": "Київська область"
  },
  {
    "name": "Шкло",
    "type": "town",
    "lat": 49.9492687,
    "lon": 23.5446092,
    "region": "Львівська область"
  },
  {
    "name": "Попільня",
    "type": "town",
    "lat": 49.9452183,
    "lon": 29.4592233,
    "region": "Житомирська область"
  },
  {
    "name": "Люботин",
    "type": "town",
    "lat": 49.9435604,
    "lon": 35.9185185,
    "region": "Харківська область"
  },
  {
    "name": "Яворів",
    "type": "town",
    "lat": 49.9456001,
    "lon": 23.3886319,
    "region": "Львівська область"
  },
  {
    "name": "Новояворівськ",
    "type": "town",
    "lat": 49.9316152,
    "lon": 23.5661291,
    "region": "Львівська область"
  },
  {
    "name": "Івано-Франкове",
    "type": "town",
    "lat": 49.9220001,
    "lon": 23.7311549,
    "region": "Львівська область"
  },
  {
    "name": "Троїцьке",
    "type": "town",
    "lat": 49.9074486,
    "lon": 38.2868192,
    "region": "Луганська область"
  },
  {
    "name": "Покотилівка",
    "type": "town",
    "lat": 49.9161047,
    "lon": 36.1804499,
    "region": "Харківська область"
  },
  {
    "name": "Красне",
    "type": "town",
    "lat": 49.9191973,
    "lon": 24.6152885,
    "region": "Львівська область"
  },
  {
    "name": "Брюховичі",
    "type": "town",
    "lat": 49.9025343,
    "lon": 23.9466945,
    "region": "Львівська область"
  },
  {
    "name": "Бабаї",
    "type": "town",
    "lat": 49.8914871,
    "lon": 36.20253,
    "region": "Харківська область"
  },
  {
    "name": "Бердичів",
    "type": "town",
    "lat": 49.8940442,
    "lon": 28.5814912,
    "region": "Житомирська область"
  },
  {
    "name": "Докучаєвське",
    "type": "village",
    "lat": 49.894032,
    "lon": 36.4495737,
    "region": "Харківська область"
  },
  {
    "name": "Високий",
    "type": "town",
    "lat": 49.8911681,
    "lon": 36.1286649,
    "region": "Харківська область"
  },
  {
    "name": "Буди",
    "type": "town",
    "lat": 49.8915881,
    "lon": 36.0238227,
    "region": "Харківська область"
  },
  {
    "name": "Шишаки",
    "type": "town",
    "lat": 49.8764366,
    "lon": 34.0069282,
    "region": "Полтавська область"
  },
  {
    "name": "Південне",
    "type": "town",
    "lat": 49.8847449,
    "lon": 36.0666511,
    "region": "Харківська область"
  },
  {
    "name": "Безлюдівка",
    "type": "town",
    "lat": 49.87072,
    "lon": 36.29848,
    "region": "Харківська область"
  },
  {
    "name": "Печеніги",
    "type": "town",
    "lat": 49.8654959,
    "lon": 36.939812,
    "region": "Харківська область"
  },
  {
    "name": "Рудне",
    "type": "town",
    "lat": 49.835938,
    "lon": 23.8806617,
    "region": "Львівська область"
  },
  {
    "name": "Теофіполь",
    "type": "town",
    "lat": 49.84463,
    "lon": 26.41525,
    "region": "Хмельницька область"
  },
  {
    "name": "Новопокровка",
    "type": "town",
    "lat": 49.8377053,
    "lon": 36.5549759,
    "region": "Харківська область"
  },
  {
    "name": "Валки",
    "type": "town",
    "lat": 49.8305999,
    "lon": 35.6088208,
    "region": "Харківська область"
  },
  {
    "name": "Васищеве",
    "type": "town",
    "lat": 49.835365,
    "lon": 36.3312164,
    "region": "Харківська область"
  },
  {
    "name": "Узин",
    "type": "town",
    "lat": 49.8284745,
    "lon": 30.4197205,
    "region": "Київська область"
  },
  {
    "name": "Диканька",
    "type": "town",
    "lat": 49.8227778,
    "lon": 34.5386111,
    "region": "Полтавська область"
  },
  {
    "name": "Малинівка",
    "type": "town",
    "lat": 49.8006602,
    "lon": 36.7180703,
    "region": "Харківська область"
  },
  {
    "name": "Велика Багачка",
    "type": "town",
    "lat": 49.7852778,
    "lon": 33.7213889,
    "region": "Полтавська область"
  },
  {
    "name": "Есхар",
    "type": "town",
    "lat": 49.7953242,
    "lon": 36.5927206,
    "region": "Харківська область"
  },
  {
    "name": "Мостиська",
    "type": "town",
    "lat": 49.79235,
    "lon": 23.147933,
    "region": "Львівська область"
  },
  {
    "name": "Судова Вишня",
    "type": "town",
    "lat": 49.7880934,
    "lon": 23.3732553,
    "region": "Львівська область"
  },
  {
    "name": "Сокільники",
    "type": "village",
    "lat": 49.7797678,
    "lon": 23.9791691,
    "region": "Львівська область"
  },
  {
    "name": "Хорол",
    "type": "town",
    "lat": 49.7822104,
    "lon": 33.2740646,
    "region": "Полтавська область"
  },
  {
    "name": "Старокостянтинів",
    "type": "town",
    "lat": 49.756163,
    "lon": 27.2087889,
    "region": "Хмельницька область"
  },
  {
    "name": "Давидів",
    "type": "village",
    "lat": 49.751785,
    "lon": 24.135963,
    "region": "Львівська область"
  },
  {
    "name": "Сквира",
    "type": "town",
    "lat": 49.7337685,
    "lon": 29.6624138,
    "region": "Київська область"
  },
  {
    "name": "Пустомити",
    "type": "town",
    "lat": 49.7189582,
    "lon": 23.9047288,
    "region": "Львівська область"
  },
  {
    "name": "Чутове",
    "type": "town",
    "lat": 49.7151879,
    "lon": 35.1708927,
    "region": "Полтавська область"
  },
  {
    "name": "Нова Водолага",
    "type": "town",
    "lat": 49.7181212,
    "lon": 35.8601594,
    "region": "Харківська область"
  },
  {
    "name": "Куп’янськ",
    "type": "town",
    "lat": 49.7132963,
    "lon": 37.6141992,
    "region": "Харківська область"
  },
  {
    "name": "Шевченкове",
    "type": "town",
    "lat": 49.6949729,
    "lon": 37.1753112,
    "region": "Харківська область"
  },
  {
    "name": "Куп’янськ-Вузловий",
    "type": "town",
    "lat": 49.6604953,
    "lon": 37.6439202,
    "region": "Харківська область"
  },
  {
    "name": "Рокитне",
    "type": "town",
    "lat": 49.6867282,
    "lon": 30.473034,
    "region": "Київська область"
  },
  {
    "name": "Перемишляни",
    "type": "town",
    "lat": 49.6693553,
    "lon": 24.5584141,
    "region": "Львівська область"
  },
  {
    "name": "Чорнобай",
    "type": "town",
    "lat": 49.6703659,
    "lon": 32.3233563,
    "region": "Черкаська область"
  },
  {
    "name": "Рудки",
    "type": "town",
    "lat": 49.6546113,
    "lon": 23.4872178,
    "region": "Львівська область"
  },
  {
    "name": "Щирець",
    "type": "town",
    "lat": 49.6465416,
    "lon": 23.8571249,
    "region": "Львівська область"
  },
  {
    "name": "Ківшарівка",
    "type": "town",
    "lat": 49.6295221,
    "lon": 37.6840775,
    "region": "Харківська область"
  },
  {
    "name": "Таранівка",
    "type": "village",
    "lat": 49.616661,
    "lon": 36.151199,
    "region": "Харківська область"
  },
  {
    "name": "Стара Синява",
    "type": "town",
    "lat": 49.5971513,
    "lon": 27.615815,
    "region": "Хмельницька область"
  },
  {
    "name": "Семенівка",
    "type": "town",
    "lat": 49.5972685,
    "lon": 33.179559,
    "region": "Полтавська область"
  },
  {
    "name": "Слобожанське",
    "type": "town",
    "lat": 49.5989864,
    "lon": 36.5242153,
    "region": "Харківська область"
  },
  {
    "name": "Решетилівка",
    "type": "town",
    "lat": 49.5586111,
    "lon": 34.0791667,
    "region": "Полтавська область"
  },
  {
    "name": "Богуслав",
    "type": "town",
    "lat": 49.54765,
    "lon": 30.8733,
    "region": "Київська область"
  },
  {
    "name": "Андріївка",
    "type": "town",
    "lat": 49.54559,
    "lon": 36.61159,
    "region": "Харківська область"
  },
  {
    "name": "Розсошенці",
    "type": "village",
    "lat": 49.5425599,
    "lon": 34.5015816,
    "region": "Полтавська область"
  },
  {
    "name": "Айдар",
    "type": "town",
    "lat": 49.5383615,
    "lon": 39.1022062,
    "region": "Луганська область"
  },
  {
    "name": "Кумейки",
    "type": "village",
    "lat": 49.533245,
    "lon": 31.524736,
    "region": "Черкаська область"
  },
  {
    "name": "Білокуракине",
    "type": "town",
    "lat": 49.52637,
    "lon": 38.73539,
    "region": "Луганська область"
  },
  {
    "name": "Підволочиськ",
    "type": "town",
    "lat": 49.531358,
    "lon": 26.1440799,
    "region": "Тернопільська область"
  },
  {
    "name": "Миколаїв",
    "type": "town",
    "lat": 49.5253714,
    "lon": 23.9788155,
    "region": "Львівська область"
  },
  {
    "name": "Марківка",
    "type": "town",
    "lat": 49.5239233,
    "lon": 39.5682107,
    "region": "Луганська область"
  },
  {
    "name": "Володарка",
    "type": "town",
    "lat": 49.5224979,
    "lon": 29.9280475,
    "region": "Київська область"
  },
  {
    "name": "Самбір",
    "type": "town",
    "lat": 49.5182214,
    "lon": 23.1970412,
    "region": "Львівська область"
  },
  {
    "name": "Донець",
    "type": "town",
    "lat": 49.5092289,
    "lon": 36.569621,
    "region": "Харківська область"
  },
  {
    "name": "Велика Березовиця",
    "type": "town",
    "lat": 49.5019863,
    "lon": 25.6112886,
    "region": "Тернопільська область"
  },
  {
    "name": "Розвадів",
    "type": "village",
    "lat": 49.5030978,
    "lon": 23.9581902,
    "region": "Львівська область"
  },
  {
    "name": "Балаклія",
    "type": "town",
    "lat": 49.4521336,
    "lon": 36.8397826,
    "region": "Харківська область"
  },
  {
    "name": "Карлівка",
    "type": "town",
    "lat": 49.4537175,
    "lon": 35.1374845,
    "region": "Полтавська область"
  },
  {
    "name": "Старий Самбір",
    "type": "town",
    "lat": 49.44406,
    "lon": 23.0022677,
    "region": "Львівська область"
  },
  {
    "name": "Козова",
    "type": "town",
    "lat": 49.4332743,
    "lon": 25.1484661,
    "region": "Тернопільська область"
  },
  {
    "name": "Ходорів",
    "type": "town",
    "lat": 49.4065802,
    "lon": 24.3140241,
    "region": "Львівська область"
  },
  {
    "name": "Слобода",
    "type": "village",
    "lat": 49.379837,
    "lon": 32.14439,
    "region": "Черкаська область"
  },
  {
    "name": "Савинці",
    "type": "town",
    "lat": 49.3960266,
    "lon": 37.0501991,
    "region": "Харківська область"
  },
  {
    "name": "Піщанка",
    "type": "village",
    "lat": 49.392063,
    "lon": 35.442699,
    "region": "Харківська область"
  },
  {
    "name": "Ставище",
    "type": "town",
    "lat": 49.3897213,
    "lon": 30.1921389,
    "region": "Київська область"
  },
  {
    "name": "Летичів",
    "type": "town",
    "lat": 49.38286,
    "lon": 27.62306,
    "region": "Хмельницька область"
  },
  {
    "name": "Мілове",
    "type": "town",
    "lat": 49.38011,
    "lon": 40.1255,
    "region": "Луганська область"
  },
  {
    "name": "Глобине",
    "type": "town",
    "lat": 49.392047,
    "lon": 33.2507308,
    "region": "Полтавська область"
  },
  {
    "name": "Златопіль",
    "type": "town",
    "lat": 49.3754529,
    "lon": 36.2143454,
    "region": "Харківська область"
  },
  {
    "name": "Тетіїв",
    "type": "town",
    "lat": 49.3686166,
    "lon": 29.6771098,
    "region": "Київська область"
  },
  {
    "name": "Турбів",
    "type": "town",
    "lat": 49.339939,
    "lon": 28.7260729,
    "region": "Вінницька область"
  },
  {
    "name": "Нові Санжари",
    "type": "town",
    "lat": 49.3338321,
    "lon": 34.3148631,
    "region": "Полтавська область"
  },
  {
    "name": "Літин",
    "type": "town",
    "lat": 49.3289764,
    "lon": 28.0740254,
    "region": "Вінницька область"
  },
  {
    "name": "Стебник",
    "type": "town",
    "lat": 49.2940892,
    "lon": 23.5646648,
    "region": "Львівська область"
  },
  {
    "name": "Білозір’я",
    "type": "village",
    "lat": 49.2975805,
    "lon": 31.8935819,
    "region": "Черкаська область"
  },
  {
    "name": "Городище",
    "type": "town",
    "lat": 49.2903792,
    "lon": 31.4446702,
    "region": "Черкаська область"
  },
  {
    "name": "Кегичівка",
    "type": "town",
    "lat": 49.2862713,
    "lon": 35.7694811,
    "region": "Харківська область"
  },
  {
    "name": "Старобільськ",
    "type": "town",
    "lat": 49.2822424,
    "lon": 38.897386,
    "region": "Луганська область"
  },
  {
    "name": "Білики",
    "type": "town",
    "lat": 49.259043,
    "lon": 34.2690187,
    "region": "Полтавська область"
  },
  {
    "name": "Лисянка",
    "type": "town",
    "lat": 49.2526497,
    "lon": 30.8275126,
    "region": "Черкаська область"
  },
  {
    "name": "Жашків",
    "type": "town",
    "lat": 49.2478012,
    "lon": 30.1066179,
    "region": "Черкаська область"
  },
  {
    "name": "Градизьк",
    "type": "town",
    "lat": 49.2311773,
    "lon": 33.1206291,
    "region": "Полтавська область"
  },
  {
    "name": "Сміла",
    "type": "town",
    "lat": 49.2336897,
    "lon": 31.8829216,
    "region": "Черкаська область"
  },
  {
    "name": "Липовець",
    "type": "town",
    "lat": 49.2296415,
    "lon": 29.0642148,
    "region": "Вінницька область"
  },
  {
    "name": "Вінницькі Хутори",
    "type": "town",
    "lat": 49.20467,
    "lon": 28.55072,
    "region": "Вінницька область"
  },
  {
    "name": "Біловодськ",
    "type": "town",
    "lat": 49.2068078,
    "lon": 39.5911619,
    "region": "Луганська область"
  },
  {
    "name": "Ярмолинці",
    "type": "town",
    "lat": 49.1893102,
    "lon": 26.8268091,
    "region": "Хмельницька область"
  },
  {
    "name": "Ізюм",
    "type": "town",
    "lat": 49.1913721,
    "lon": 37.2784125,
    "region": "Харківська область"
  },
  {
    "name": "Турка",
    "type": "town",
    "lat": 49.1531436,
    "lon": 23.0336345,
    "region": "Львівська область"
  },
  {
    "name": "Сахновщина",
    "type": "town",
    "lat": 49.1517351,
    "lon": 35.875332,
    "region": "Харківська область"
  },
  {
    "name": "Моршин",
    "type": "town",
    "lat": 49.1536011,
    "lon": 23.8700537,
    "region": "Львівська область"
  },
  {
    "name": "Кобеляки",
    "type": "town",
    "lat": 49.1433333,
    "lon": 34.2002778,
    "region": "Полтавська область"
  },
  {
    "name": "Краснопавлівка",
    "type": "town",
    "lat": 49.14596,
    "lon": 36.3275358,
    "region": "Харківська область"
  },
  {
    "name": "Іллінці",
    "type": "town",
    "lat": 49.1136358,
    "lon": 29.2024356,
    "region": "Вінницька область"
  },
  {
    "name": "Вороновиця",
    "type": "town",
    "lat": 49.1117881,
    "lon": 28.6889425,
    "region": "Вінницька область"
  },
  {
    "name": "Власівка",
    "type": "town",
    "lat": 49.1161177,
    "lon": 33.2791833,
    "region": "Кіровоградська область"
  },
  {
    "name": "Гнівань",
    "type": "town",
    "lat": 49.0933696,
    "lon": 28.338343,
    "region": "Вінницька область"
  },
  {
    "name": "Браїлів",
    "type": "village",
    "lat": 49.0889705,
    "lon": 28.1404349,
    "region": "Вінницька область"
  },
  {
    "name": "Чигирин",
    "type": "town",
    "lat": 49.0775098,
    "lon": 32.6664089,
    "region": "Черкаська область"
  },
  {
    "name": "Звенигородка",
    "type": "town",
    "lat": 49.0767158,
    "lon": 30.96138,
    "region": "Черкаська область"
  },
  {
    "name": "Бар",
    "type": "town",
    "lat": 49.077621,
    "lon": 27.6813781,
    "region": "Вінницька область"
  },
  {
    "name": "Гусятин",
    "type": "town",
    "lat": 49.0707755,
    "lon": 26.1996027,
    "region": "Тернопільська область"
  },
  {
    "name": "Кремінна",
    "type": "town",
    "lat": 49.0463189,
    "lon": 38.2178525,
    "region": "Луганська область"
  },
  {
    "name": "Світловодськ",
    "type": "town",
    "lat": 49.04537,
    "lon": 33.20721,
    "region": "Кіровоградська область"
  },
  {
    "name": "Сутиски",
    "type": "town",
    "lat": 49.0453739,
    "lon": 28.418232,
    "region": "Вінницька область"
  },
  {
    "name": "Кам’янка",
    "type": "town",
    "lat": 49.0401185,
    "lon": 32.1008691,
    "region": "Черкаська область"
  },
  {
    "name": "Жмеринка",
    "type": "town",
    "lat": 49.0354593,
    "lon": 28.1147317,
    "region": "Вінницька область"
  },
  {
    "name": "Горішні Плавні",
    "type": "town",
    "lat": 49.0140647,
    "lon": 33.6330875,
    "region": "Полтавська область"
  },
  {
    "name": "Віньківці",
    "type": "town",
    "lat": 49.0347398,
    "lon": 27.2320952,
    "region": "Хмельницька область"
  },
  {
    "name": "Перещепине",
    "type": "town",
    "lat": 49.01825,
    "lon": 35.35915,
    "region": "Дніпропетровська область"
  },
  {
    "name": "Багачеве",
    "type": "town",
    "lat": 49.0172494,
    "lon": 31.0618502,
    "region": "Черкаська область"
  },
  {
    "name": "Чемерівці",
    "type": "town",
    "lat": 49.0087176,
    "lon": 26.3405624,
    "region": "Хмельницька область"
  },
  {
    "name": "Шпола",
    "type": "town",
    "lat": 49.0132605,
    "lon": 31.393139,
    "region": "Черкаська область"
  },
  {
    "name": "Голинь",
    "type": "village",
    "lat": 49.005611,
    "lon": 24.248028,
    "region": "Івано-Франківська область"
  },
  {
    "name": "Рубіжне",
    "type": "town",
    "lat": 49.0329045,
    "lon": 38.3725819,
    "region": "Луганська область"
  },
  {
    "name": "Привілля",
    "type": "town",
    "lat": 48.99971,
    "lon": 38.30109,
    "region": "Луганська область"
  },
  {
    "name": "Брошнів-Осада",
    "type": "town",
    "lat": 48.9958991,
    "lon": 24.1858656,
    "region": "Івано-Франківська область"
  },
  {
    "name": "Монастирище",
    "type": "town",
    "lat": 48.9944069,
    "lon": 29.8007253,
    "region": "Черкаська область"
  },
  {
    "name": "Новоайдар",
    "type": "town",
    "lat": 48.9596084,
    "lon": 38.9937733,
    "region": "Луганська область"
  },
  {
    "name": "Немирів",
    "type": "town",
    "lat": 48.9654035,
    "lon": 28.8430131,
    "region": "Вінницька область"
  },
  {
    "name": "Олександрівка",
    "type": "town",
    "lat": 48.9656487,
    "lon": 32.2383382,
    "region": "Кіровоградська область"
  },
  {
    "name": "Маньківка",
    "type": "town",
    "lat": 48.9634119,
    "lon": 30.3342681,
    "region": "Черкаська область"
  },
  {
    "name": "Сваричів",
    "type": "village",
    "lat": 48.959156,
    "lon": 24.186478,
    "region": "Івано-Франківська область"
  },
  {
    "name": "Новодружеськ",
    "type": "town",
    "lat": 48.963397,
    "lon": 38.3519615,
    "region": "Луганська область"
  },
  {
    "name": "Сіверськодонецьк",
    "type": "city",
    "lat": 48.9478698,
    "lon": 38.4936475,
    "region": "Луганська область"
  },
  {
    "name": "Царичанка",
    "type": "town",
    "lat": 48.9434,
    "lon": 34.48986,
    "region": "Дніпропетровська область"
  },
  {
    "name": "Калинопіль",
    "type": "town",
    "lat": 48.94329,
    "lon": 30.9723848,
    "region": "Черкаська область"
  },
  {
    "name": "Лиманівка",
    "type": "town",
    "lat": 48.9356897,
    "lon": 36.2778585,
    "region": "Харківська область"
  },
  {
    "name": "Магдалинівка",
    "type": "town",
    "lat": 48.9145571,
    "lon": 34.9291661,
    "region": "Дніпропетровська область"
  },
  {
    "name": "Барвінкове",
    "type": "town",
    "lat": 48.9035037,
    "lon": 37.025111,
    "region": "Харківська область"
  },
  {
    "name": "Великий Березний",
    "type": "town",
    "lat": 48.88985,
    "lon": 22.45812,
    "region": "Закарпатська область"
  },
  {
    "name": "Лозова",
    "type": "town",
    "lat": 48.8842428,
    "lon": 36.3160254,
    "region": "Харківська область"
  },
  {
    "name": "Тальне",
    "type": "town",
    "lat": 48.8889723,
    "lon": 30.6980137,
    "region": "Черкаська область"
  },
  {
    "name": "Лисичанськ",
    "type": "city",
    "lat": 48.917267,
    "lon": 38.4285981,
    "region": "Луганська область"
  },
  {
    "name": "Борівське",
    "type": "town",
    "lat": 48.8709944,
    "lon": 38.5605812,
    "region": "Луганська область"
  },
  {
    "name": "Перегінське",
    "type": "town",
    "lat": 48.8115525,
    "lon": 24.1938558,
    "region": "Івано-Франківська область"
  },
  {
    "name": "Губиниха",
    "type": "town",
    "lat": 48.8082927,
    "lon": 35.2563381,
    "region": "Дніпропетровська область"
  },
  {
    "name": "Гайсин",
    "type": "town",
    "lat": 48.8120874,
    "lon": 29.3893874,
    "region": "Вінницька область"
  },
  {
    "name": "Богородчани",
    "type": "town",
    "lat": 48.8092602,
    "lon": 24.5456201,
    "region": "Івано-Франківська область"
  },
  {
    "name": "Маків",
    "type": "village",
    "lat": 48.795036,
    "lon": 26.691282,
    "region": "Хмельницька область"
  },
  {
    "name": "Новомиргород",
    "type": "town",
    "lat": 48.7969701,
    "lon": 31.6523837,
    "region": "Кіровоградська область"
  },
  {
    "name": "Шаргород",
    "type": "town",
    "lat": 48.7498267,
    "lon": 28.08317,
    "region": "Вінницька область"
  },
  {
    "name": "Перечин",
    "type": "town",
    "lat": 48.73707,
    "lon": 22.48764,
    "region": "Закарпатська область"
  },
  {
    "name": "Зарічне",
    "type": "town",
    "lat": 48.73638,
    "lon": 35.32482,
    "region": "Дніпропетровська область"
  },
  {
    "name": "Отинія",
    "type": "town",
    "lat": 48.7344514,
    "lon": 24.8637681,
    "region": "Івано-Франківська область"
  },
  {
    "name": "Гірське",
    "type": "town",
    "lat": 48.7398863,
    "lon": 38.4959612,
    "region": "Луганська область"
  },
  {
    "name": "Кіблич",
    "type": "village",
    "lat": 48.7221371,
    "lon": 29.5665076,
    "region": "Вінницька область"
  },
  {
    "name": "Воловець",
    "type": "town",
    "lat": 48.7146406,
    "lon": 23.1888322,
    "region": "Закарпатська область"
  },
  {
    "name": "Муровані Курилівці",
    "type": "town",
    "lat": 48.7130055,
    "lon": 27.5355762,
    "region": "Вінницька область"
  },
  {
    "name": "Слов’яносербськ",
    "type": "town",
    "lat": 48.6946569,
    "lon": 38.9862564,
    "region": "Луганська область"
  },
  {
    "name": "Знам’янка Друга",
    "type": "town",
    "lat": 48.7133938,
    "lon": 32.5925031,
    "region": "Кіровоградська область"
  },
  {
    "name": "Золоте",
    "type": "town",
    "lat": 48.6901104,
    "lon": 38.5121584,
    "region": "Луганська область"
  },
  {
    "name": "Ладижин",
    "type": "town",
    "lat": 48.6810505,
    "lon": 29.2567642,
    "region": "Вінницька область"
  },
  {
    "name": "Олександрія",
    "type": "town",
    "lat": 48.670609,
    "lon": 33.1169742,
    "region": "Кіровоградська область"
  },
  {
    "name": "Тульчин",
    "type": "town",
    "lat": 48.6730485,
    "lon": 28.8569476,
    "region": "Вінницька область"
  },
  {
    "name": "Станиця Луганська",
    "type": "town",
    "lat": 48.6429638,
    "lon": 39.4956573,
    "region": "Луганська область"
  },
  {
    "name": "Новоархангельськ",
    "type": "town",
    "lat": 48.6644983,
    "lon": 30.8048464,
    "region": "Кіровоградська область"
  },
  {
    "name": "Теплик",
    "type": "town",
    "lat": 48.6636,
    "lon": 29.74686,
    "region": "Вінницька область"
  },
  {
    "name": "Верхньодніпровськ",
    "type": "town",
    "lat": 48.6541915,
    "lon": 34.3347779,
    "region": "Дніпропетровська область"
  },
  {
    "name": "Мала Виска",
    "type": "town",
    "lat": 48.6404935,
    "lon": 31.634205,
    "region": "Кіровоградська область"
  },
  {
    "name": "Самар",
    "type": "town",
    "lat": 48.6358512,
    "lon": 35.2595541,
    "region": "Дніпропетровська область"
  },
  {
    "name": "Попасна",
    "type": "town",
    "lat": 48.6322687,
    "lon": 38.3777033,
    "region": "Луганська область"
  },
  {
    "name": "Сокологірськ",
    "type": "town",
    "lat": 48.6252414,
    "lon": 38.5372813,
    "region": "Луганська область"
  },
  {
    "name": "Ірміно",
    "type": "town",
    "lat": 48.6013803,
    "lon": 38.6018666,
    "region": "Луганська область"
  },
  {
    "name": "Смоліне",
    "type": "town",
    "lat": 48.6014602,
    "lon": 31.2957107,
    "region": "Кіровоградська область"
  },
  {
    "name": "Дніпровське",
    "type": "town",
    "lat": 48.59733,
    "lon": 34.42806,
    "region": "Дніпропетровська область"
  },
  {
    "name": "Олександрівськ",
    "type": "town",
    "lat": 48.585751,
    "lon": 39.1897675,
    "region": "Луганська область"
  },
  {
    "name": "Зимогір’я",
    "type": "town",
    "lat": 48.5782151,
    "lon": 38.9451299,
    "region": "Луганська область"
  },
  {
    "name": "Кирнасівка",
    "type": "town",
    "lat": 48.5955284,
    "lon": 28.9789685,
    "region": "Вінницька область"
  },
  {
    "name": "Нова Прага",
    "type": "town",
    "lat": 48.5691102,
    "lon": 32.9043787,
    "region": "Кіровоградська область"
  },
  {
    "name": "Лозівський",
    "type": "town",
    "lat": 48.56747,
    "lon": 38.88473,
    "region": "Луганська область"
  },
  {
    "name": "Підгородне",
    "type": "town",
    "lat": 48.5681471,
    "lon": 35.1013002,
    "region": "Дніпропетровська область"
  },
  {
    "name": "Кадіївка",
    "type": "town",
    "lat": 48.5595971,
    "lon": 38.6499847,
    "region": "Луганська область"
  },
  {
    "name": "Родакове",
    "type": "town",
    "lat": 48.55923,
    "lon": 39.02515,
    "region": "Луганська область"
  },
  {
    "name": "Катеринівка",
    "type": "town",
    "lat": 48.558956,
    "lon": 39.1902159,
    "region": "Луганська область"
  },
  {
    "name": "Обухівка",
    "type": "town",
    "lat": 48.5495226,
    "lon": 34.8545508,
    "region": "Дніпропетровська область"
  },
  {
    "name": "Свалява",
    "type": "town",
    "lat": 48.5460735,
    "lon": 22.9895489,
    "region": "Закарпатська область"
  },
  {
    "name": "Томашпіль",
    "type": "town",
    "lat": 48.5487589,
    "lon": 28.5188146,
    "region": "Вінницька область"
  },
  {
    "name": "Нове",
    "type": "town",
    "lat": 48.5293378,
    "lon": 32.1245383,
    "region": "Кіровоградська область"
  },
  {
    "name": "Слобожанське",
    "type": "town",
    "lat": 48.5307982,
    "lon": 35.0828484,
    "region": "Дніпропетровська область"
  },
  {
    "name": "Вапнярка",
    "type": "town",
    "lat": 48.5312383,
    "lon": 28.7468189,
    "region": "Вінницька область"
  },
  {
    "name": "Міжгір’я",
    "type": "town",
    "lat": 48.5281184,
    "lon": 23.5009289,
    "region": "Закарпатська область"
  },
  {
    "name": "Делятин",
    "type": "town",
    "lat": 48.5277174,
    "lon": 24.6286388,
    "region": "Івано-Франківська область"
  },
  {
    "name": "Тернівка",
    "type": "town",
    "lat": 48.522139,
    "lon": 36.0713859,
    "region": "Дніпропетровська область"
  },
  {
    "name": "Тростянець",
    "type": "town",
    "lat": 48.51227,
    "lon": 29.2226589,
    "region": "Вінницька область"
  },
  {
    "name": "Печеніжин",
    "type": "town",
    "lat": 48.5132253,
    "lon": 24.8803552,
    "region": "Івано-Франківська область"
  },
  {
    "name": "Брянка",
    "type": "town",
    "lat": 48.50361,
    "lon": 38.66432,
    "region": "Луганська область"
  },
  {
    "name": "Чинадійово",
    "type": "town",
    "lat": 48.5005201,
    "lon": 22.84435,
    "region": "Закарпатська область"
  },
  {
    "name": "Богданівка",
    "type": "village",
    "lat": 48.494678,
    "lon": 36.108971,
    "region": "Дніпропетровська область"
  },
  {
    "name": "Вільногірськ",
    "type": "town",
    "lat": 48.49365,
    "lon": 34.02328,
    "region": "Дніпропетровська область"
  },
  {
    "name": "Біле",
    "type": "town",
    "lat": 48.4891062,
    "lon": 39.0241451,
    "region": "Луганська область"
  },
  {
    "name": "Розкішне",
    "type": "village",
    "lat": 48.486359,
    "lon": 39.270676,
    "region": "Луганська область"
  },
  {
    "name": "Романківці",
    "type": "village",
    "lat": 48.484718,
    "lon": 27.21382,
    "region": "Чернівецька область"
  },
  {
    "name": "Верхівцеве",
    "type": "town",
    "lat": 48.48404,
    "lon": 34.24232,
    "region": "Дніпропетровська область"
  },
  {
    "name": "Карнаухівка",
    "type": "town",
    "lat": 48.47546,
    "lon": 34.73843,
    "region": "Дніпропетровська область"
  },
  {
    "name": "Дніпро",
    "type": "city",
    "lat": 48.4680221,
    "lon": 35.0417711,
    "region": "Дніпропетровська область"
  },
  {
    "name": "Петропавлівка",
    "type": "town",
    "lat": 48.45863,
    "lon": 36.42483,
    "region": "Дніпропетровська область"
  },
  {
    "name": "Могилів-Подільський",
    "type": "town",
    "lat": 48.442544,
    "lon": 27.7991124,
    "region": "Вінницька область"
  },
  {
    "name": "Мукачево",
    "type": "town",
    "lat": 48.4421119,
    "lon": 22.7185408,
    "region": "Закарпатська область"
  },
  {
    "name": "Кипуче",
    "type": "town",
    "lat": 48.4387871,
    "lon": 38.7214859,
    "region": "Луганська область"
  },
  {
    "name": "Кушниця",
    "type": "village",
    "lat": 48.440441,
    "lon": 23.25325,
    "region": "Закарпатська область"
  },
  {
    "name": "Перевальськ",
    "type": "town",
    "lat": 48.4374196,
    "lon": 38.8077656,
    "region": "Луганська область"
  },
  {
    "name": "Георгіївка",
    "type": "town",
    "lat": 48.4298552,
    "lon": 39.2691313,
    "region": "Луганська область"
  },
  {
    "name": "Колочава",
    "type": "village",
    "lat": 48.426567,
    "lon": 23.698563,
    "region": "Закарпатська область"
  },
  {
    "name": "П’ятихатки",
    "type": "town",
    "lat": 48.4124572,
    "lon": 33.7056731,
    "region": "Дніпропетровська область"
  },
  {
    "name": "Велика Добронь",
    "type": "village",
    "lat": 48.4222699,
    "lon": 22.3914888,
    "region": "Закарпатська область"
  },
  {
    "name": "Великі Лучки",
    "type": "village",
    "lat": 48.418812,
    "lon": 22.57279,
    "region": "Закарпатська область"
  },
  {
    "name": "Зоринськ",
    "type": "town",
    "lat": 48.41297,
    "lon": 38.62793,
    "region": "Луганська область"
  },
  {
    "name": "Яворницьке",
    "type": "town",
    "lat": 48.4043673,
    "lon": 35.275539,
    "region": "Дніпропетровська область"
  },
  {
    "name": "Лутугине",
    "type": "town",
    "lat": 48.4008342,
    "lon": 39.1981259,
    "region": "Луганська область"
  },
  {
    "name": "Микуличин",
    "type": "village",
    "lat": 48.397179,
    "lon": 24.599421,
    "region": "Івано-Франківська область"
  },
  {
    "name": "Успенка",
    "type": "town",
    "lat": 48.3937544,
    "lon": 39.1568338,
    "region": "Луганська область"
  },
  {
    "name": "Миколаївка",
    "type": "village",
    "lat": 48.389278,
    "lon": 36.315651,
    "region": "Дніпропетровська область"
  },
  {
    "name": "Добровеличківка",
    "type": "town",
    "lat": 48.38791,
    "lon": 31.17748,
    "region": "Кіровоградська область"
  },
  {
    "name": "Крижопіль",
    "type": "town",
    "lat": 48.38568,
    "lon": 28.86941,
    "region": "Вінницька область"
  },
  {
    "name": "Голованівськ",
    "type": "town",
    "lat": 48.3830239,
    "lon": 30.4655894,
    "region": "Кіровоградська область"
  },
  {
    "name": "Городківка",
    "type": "town",
    "lat": 48.3805801,
    "lon": 28.6870061,
    "region": "Вінницька область"
  },
  {
    "name": "Бершадь",
    "type": "town",
    "lat": 48.36594,
    "lon": 29.51889,
    "region": "Вінницька область"
  },
  {
    "name": "Кам’янець",
    "type": "town",
    "lat": 48.3658045,
    "lon": 32.6572986,
    "region": "Кіровоградська область"
  },
  {
    "name": "Рожнів",
    "type": "village",
    "lat": 48.3648867,
    "lon": 25.2285814,
    "region": "Івано-Франківська область"
  },
  {
    "name": "Шахтарське",
    "type": "town",
    "lat": 48.3505864,
    "lon": 36.402296,
    "region": "Дніпропетровська область"
  },
  {
    "name": "Жовті Води",
    "type": "town",
    "lat": 48.3465174,
    "lon": 33.5027797,
    "region": "Дніпропетровська область"
  },
  {
    "name": "Суходільськ",
    "type": "town",
    "lat": 48.35323,
    "lon": 39.72484,
    "region": "Луганська область"
  },
  {
    "name": "Мамаївці",
    "type": "village",
    "lat": 48.3527353,
    "lon": 25.8222129,
    "region": "Чернівецька область"
  },
  {
    "name": "Ільниця",
    "type": "village",
    "lat": 48.34774,
    "lon": 23.087429,
    "region": "Закарпатська область"
  },
  {
    "name": "Отаманівка",
    "type": "town",
    "lat": 48.3459067,
    "lon": 39.6524188,
    "region": "Луганська область"
  },
  {
    "name": "Благовіщенське",
    "type": "town",
    "lat": 48.327711,
    "lon": 30.2344886,
    "region": "Кіровоградська область"
  },
  {
    "name": "Петрове",
    "type": "town",
    "lat": 48.3359844,
    "lon": 33.2673999,
    "region": "Кіровоградська область"
  },
  {
    "name": "Космач",
    "type": "village",
    "lat": 48.3307391,
    "lon": 24.8143791,
    "region": "Івано-Франківська область"
  },
  {
    "name": "Чорнухине",
    "type": "town",
    "lat": 48.32783,
    "lon": 38.50193,
    "region": "Луганська область"
  },
  {
    "name": "Білки",
    "type": "village",
    "lat": 48.3197237,
    "lon": 23.1360196,
    "region": "Закарпатська область"
  },
  {
    "name": "Новоукраїнка",
    "type": "town",
    "lat": 48.3250616,
    "lon": 31.522047,
    "region": "Кіровоградська область"
  },
  {
    "name": "Синельникове",
    "type": "town",
    "lat": 48.3269304,
    "lon": 35.5246984,
    "region": "Дніпропетровська область"
  },
  {
    "name": "Іршава",
    "type": "town",
    "lat": 48.31924,
    "lon": 23.0417599,
    "region": "Закарпатська область"
  },
  {
    "name": "Сорокине",
    "type": "town",
    "lat": 48.2951425,
    "lon": 39.7296737,
    "region": "Луганська область"
  },
  {
    "name": "Тепле",
    "type": "town",
    "lat": 48.3097367,
    "lon": 39.5652387,
    "region": "Луганська область"
  },
  {
    "name": "Петрово-Красносілля",
    "type": "town",
    "lat": 48.29418,
    "lon": 38.86619,
    "region": "Луганська область"
  },
  {
    "name": "Іспас",
    "type": "village",
    "lat": 48.2955122,
    "lon": 25.2680724,
    "region": "Чернівецька область"
  },
  {
    "name": "Старі Кути",
    "type": "village",
    "lat": 48.287312,
    "lon": 25.1738,
    "region": "Івано-Франківська область"
  },
  {
    "name": "Великий Раковець",
    "type": "village",
    "lat": 48.27462,
    "lon": 23.151791,
    "region": "Закарпатська область"
  },
  {
    "name": "Ясіня",
    "type": "town",
    "lat": 48.2722802,
    "lon": 24.3611884,
    "region": "Закарпатська область"
  },
  {
    "name": "Межова",
    "type": "town",
    "lat": 48.2553506,
    "lon": 36.7322839,
    "region": "Дніпропетровська область"
  },
  {
    "name": "Помічна",
    "type": "town",
    "lat": 48.243309,
    "lon": 31.4037217,
    "region": "Кіровоградська область"
  },
  {
    "name": "Великі Ком’яти",
    "type": "village",
    "lat": 48.2395893,
    "lon": 22.9819763,
    "region": "Закарпатська область"
  },
  {
    "name": "Іванівка",
    "type": "town",
    "lat": 48.23788,
    "lon": 38.9352,
    "region": "Луганська область"
  },
  {
    "name": "Іза",
    "type": "village",
    "lat": 48.212811,
    "lon": 23.32501,
    "region": "Закарпатська область"
  },
  {
    "name": "Чечельник",
    "type": "town",
    "lat": 48.2126987,
    "lon": 29.3598689,
    "region": "Вінницька область"
  },
  {
    "name": "Васильківка",
    "type": "town",
    "lat": 48.21041,
    "lon": 36.03035,
    "region": "Дніпропетровська область"
  },
  {
    "name": "Маршинці",
    "type": "village",
    "lat": 48.214233,
    "lon": 26.292097,
    "region": "Чернівецька область"
  },
  {
    "name": "Тарасівці",
    "type": "village",
    "lat": 48.2038894,
    "lon": 26.368585,
    "region": "Чернівецька область"
  },
  {
    "name": "Рокосово",
    "type": "village",
    "lat": 48.2052601,
    "lon": 23.18012,
    "region": "Закарпатська область"
  },
  {
    "name": "Солоне",
    "type": "town",
    "lat": 48.20423,
    "lon": 34.87713,
    "region": "Дніпропетровська область"
  },
  {
    "name": "Піщанка",
    "type": "town",
    "lat": 48.2077558,
    "lon": 28.8864581,
    "region": "Вінницька область"
  },
  {
    "name": "Великий Кучурів",
    "type": "village",
    "lat": 48.1993414,
    "lon": 25.8942594,
    "region": "Чернівецька область"
  },
  {
    "name": "Дубове",
    "type": "town",
    "lat": 48.17917,
    "lon": 23.88599,
    "region": "Закарпатська область"
  },
  {
    "name": "Хуст",
    "type": "town",
    "lat": 48.1764917,
    "lon": 23.291166,
    "region": "Закарпатська область"
  },
  {
    "name": "Побузьке",
    "type": "town",
    "lat": 48.1632356,
    "lon": 30.5949322,
    "region": "Кіровоградська область"
  },
  {
    "name": "Берегомет",
    "type": "town",
    "lat": 48.1630737,
    "lon": 25.309861,
    "region": "Чернівецька область"
  },
  {
    "name": "Ясенівський",
    "type": "town",
    "lat": 48.1561105,
    "lon": 39.2064734,
    "region": "Луганська область"
  },
  {
    "name": "Верховина",
    "type": "town",
    "lat": 48.1538102,
    "lon": 24.82793,
    "region": "Івано-Франківська область"
  },
  {
    "name": "Королево",
    "type": "town",
    "lat": 48.1541387,
    "lon": 23.1322333,
    "region": "Закарпатська область"
  },
  {
    "name": "Боково-Хрустальне",
    "type": "town",
    "lat": 48.1499941,
    "lon": 38.8182126,
    "region": "Луганська область"
  },
  {
    "name": "Калини",
    "type": "village",
    "lat": 48.141399,
    "lon": 23.87364,
    "region": "Закарпатська область"
  },
  {
    "name": "Виноградів",
    "type": "town",
    "lat": 48.140417,
    "lon": 23.0360182,
    "region": "Закарпатська область"
  },
  {
    "name": "Хрустальний",
    "type": "town",
    "lat": 48.1351471,
    "lon": 38.9198948,
    "region": "Луганська область"
  },
  {
    "name": "Саврань",
    "type": "town",
    "lat": 48.1246576,
    "lon": 30.0796984,
    "region": "Одеська область"
  },
  {
    "name": "Просяна",
    "type": "town",
    "lat": 48.11909,
    "lon": 36.36921,
    "region": "Дніпропетровська область"
  },
  {
    "name": "Антрацит",
    "type": "town",
    "lat": 48.1164285,
    "lon": 39.0886375,
    "region": "Луганська область"
  },
  {
    "name": "Долинська",
    "type": "town",
    "lat": 48.1164313,
    "lon": 32.7638204,
    "region": "Кіровоградська область"
  },
  {
    "name": "Сокирниця",
    "type": "village",
    "lat": 48.117165,
    "lon": 23.382006,
    "region": "Закарпатська область"
  },
  {
    "name": "Кодима",
    "type": "town",
    "lat": 48.1047445,
    "lon": 29.1285642,
    "region": "Одеська область"
  },
  {
    "name": "Кріпенський",
    "type": "town",
    "lat": 48.0819427,
    "lon": 39.0626811,
    "region": "Луганська область"
  },
  {
    "name": "Глибока",
    "type": "town",
    "lat": 48.08578,
    "lon": 25.92842,
    "region": "Чернівецька область"
  },
  {
    "name": "Софіївка",
    "type": "town",
    "lat": 48.0482032,
    "lon": 33.8668627,
    "region": "Дніпропетровська область"
  },
  {
    "name": "Довжанськ",
    "type": "town",
    "lat": 48.0811324,
    "lon": 39.642561,
    "region": "Луганська область"
  },
  {
    "name": "Вознесенівка",
    "type": "town",
    "lat": 48.07617,
    "lon": 39.7736,
    "region": "Луганська область"
  },
  {
    "name": "Лозуватка",
    "type": "village",
    "lat": 48.061314,
    "lon": 33.2810237,
    "region": "Дніпропетровська область"
  },
  {
    "name": "Бобринець",
    "type": "town",
    "lat": 48.05729,
    "lon": 32.15938,
    "region": "Кіровоградська область"
  },
  {
    "name": "Глибокий Потік",
    "type": "village",
    "lat": 48.055229,
    "lon": 23.88496,
    "region": "Закарпатська область"
  },
  {
    "name": "Руське Поле",
    "type": "village",
    "lat": 48.054199,
    "lon": 23.526541,
    "region": "Закарпатська область"
  },
  {
    "name": "Чудей",
    "type": "village",
    "lat": 48.0510337,
    "lon": 25.6220564,
    "region": "Чернівецька область"
  },
  {
    "name": "Первомайськ",
    "type": "town",
    "lat": 48.045745,
    "lon": 30.8475997,
    "region": "Миколаївська область"
  },
  {
    "name": "Любимівка",
    "type": "town",
    "lat": 48.0480279,
    "lon": 39.4527482,
    "region": "Луганська область"
  },
  {
    "name": "Вишково",
    "type": "town",
    "lat": 48.0460598,
    "lon": 23.4277425,
    "region": "Закарпатська область"
  },
  {
    "name": "Кам’янка",
    "type": "village",
    "lat": 48.02879,
    "lon": 25.9195,
    "region": "Чернівецька область"
  },
  {
    "name": "Красноїльськ",
    "type": "town",
    "lat": 48.0182168,
    "lon": 25.5998844,
    "region": "Чернівецька область"
  },
  {
    "name": "Тячів",
    "type": "town",
    "lat": 48.01163,
    "lon": 23.5783799,
    "region": "Закарпатська область"
  },
  {
    "name": "Верхнє Водяне",
    "type": "village",
    "lat": 48.00613,
    "lon": 23.96874,
    "region": "Закарпатська область"
  },
  {
    "name": "Грушово",
    "type": "village",
    "lat": 48.004761,
    "lon": 23.76721,
    "region": "Закарпатська область"
  },
  {
    "name": "Нижня Апша",
    "type": "village",
    "lat": 47.998241,
    "lon": 23.835529,
    "region": "Закарпатська область"
  },
  {
    "name": "Тересва",
    "type": "town",
    "lat": 47.9978901,
    "lon": 23.6995699,
    "region": "Закарпатська область"
  },
  {
    "name": "Покровське",
    "type": "town",
    "lat": 47.9808528,
    "lon": 36.2333808,
    "region": "Дніпропетровська область"
  },
  {
    "name": "Середнє Водяне",
    "type": "village",
    "lat": 47.982441,
    "lon": 23.90316,
    "region": "Закарпатська область"
  },
  {
    "name": "Новомиколаївка",
    "type": "town",
    "lat": 47.97146,
    "lon": 35.89886,
    "region": "Запорізька область"
  },
  {
    "name": "Великий Бичків",
    "type": "town",
    "lat": 47.973549,
    "lon": 24.0147396,
    "region": "Закарпатська область"
  },
  {
    "name": "Криве Озеро",
    "type": "town",
    "lat": 47.9532217,
    "lon": 30.3425878,
    "region": "Миколаївська область"
  },
  {
    "name": "Вільнянськ",
    "type": "town",
    "lat": 47.9433,
    "lon": 35.43159,
    "region": "Запорізька область"
  },
  {
    "name": "Балта",
    "type": "town",
    "lat": 47.9363162,
    "lon": 29.6225979,
    "region": "Одеська область"
  },
  {
    "name": "Арбузинка",
    "type": "town",
    "lat": 47.9076,
    "lon": 31.31516,
    "region": "Миколаївська область"
  },
  {
    "name": "Врадіївка",
    "type": "town",
    "lat": 47.8594344,
    "lon": 30.5891291,
    "region": "Миколаївська область"
  },
  {
    "name": "Любашівка",
    "type": "town",
    "lat": 47.8315678,
    "lon": 30.2562335,
    "region": "Одеська область"
  },
  {
    "name": "Південноукраїнськ",
    "type": "town",
    "lat": 47.824269,
    "lon": 31.1786814,
    "region": "Миколаївська область"
  },
  {
    "name": "Казанка",
    "type": "town",
    "lat": 47.835215,
    "lon": 32.8241797,
    "region": "Миколаївська область"
  },
  {
    "name": "Томаківка",
    "type": "town",
    "lat": 47.8071544,
    "lon": 34.7474529,
    "region": "Дніпропетровська область"
  },
  {
    "name": "Подільськ",
    "type": "town",
    "lat": 47.7497422,
    "lon": 29.5304957,
    "region": "Одеська область"
  },
  {
    "name": "Балабине",
    "type": "town",
    "lat": 47.7472362,
    "lon": 35.2169637,
    "region": "Запорізька область"
  },
  {
    "name": "Ананьїв",
    "type": "town",
    "lat": 47.7161562,
    "lon": 29.9634987,
    "region": "Одеська область"
  },
  {
    "name": "Кушугум",
    "type": "town",
    "lat": 47.71671,
    "lon": 35.20981,
    "region": "Запорізька область"
  },
  {
    "name": "Комишуваха",
    "type": "town",
    "lat": 47.7141975,
    "lon": 35.5322725,
    "region": "Запорізька область"
  },
  {
    "name": "Широке",
    "type": "town",
    "lat": 47.6846511,
    "lon": 33.2645369,
    "region": "Дніпропетровська область"
  },
  {
    "name": "Олександрівка",
    "type": "town",
    "lat": 47.6895064,
    "lon": 31.2785396,
    "region": "Миколаївська область"
  },
  {
    "name": "Апостолове",
    "type": "town",
    "lat": 47.6617478,
    "lon": 33.7180001,
    "region": "Дніпропетровська область"
  },
  {
    "name": "Покров",
    "type": "town",
    "lat": 47.6546589,
    "lon": 34.1149341,
    "region": "Дніпропетровська область"
  },
  {
    "name": "Марганець",
    "type": "town",
    "lat": 47.6490555,
    "lon": 34.649194,
    "region": "Дніпропетровська область"
  },
  {
    "name": "Доманівка",
    "type": "town",
    "lat": 47.6322253,
    "lon": 30.9892003,
    "region": "Миколаївська область"
  },
  {
    "name": "Червоногригорівка",
    "type": "town",
    "lat": 47.62161,
    "lon": 34.52453,
    "region": "Дніпропетровська область"
  },
  {
    "name": "Оріхів",
    "type": "town",
    "lat": 47.5754426,
    "lon": 35.7855471,
    "region": "Запорізька область"
  },
  {
    "name": "Окни",
    "type": "town",
    "lat": 47.5399,
    "lon": 29.45881,
    "region": "Одеська область"
  },
  {
    "name": "Енергодар",
    "type": "town",
    "lat": 47.4900575,
    "lon": 34.6602709,
    "region": "Запорізька область"
  },
  {
    "name": "Нововоронцовка",
    "type": "town",
    "lat": 47.4957983,
    "lon": 33.9198174,
    "region": "Херсонська область"
  },
  {
    "name": "Кам’янка-Дніпровська",
    "type": "town",
    "lat": 47.4900938,
    "lon": 34.4109101,
    "region": "Запорізька область"
  },
  {
    "name": "Водяне",
    "type": "village",
    "lat": 47.479115,
    "lon": 34.517452,
    "region": "Запорізька область"
  },
  {
    "name": "Велика Знам’янка",
    "type": "village",
    "lat": 47.433811,
    "lon": 34.360432,
    "region": "Запорізька область"
  },
  {
    "name": "Василівка",
    "type": "town",
    "lat": 47.4431859,
    "lon": 35.2803026,
    "region": "Запорізька область"
  },
  {
    "name": "Баштанка",
    "type": "town",
    "lat": 47.4033486,
    "lon": 32.4388921,
    "region": "Миколаївська область"
  },
  {
    "name": "Дніпрорудне",
    "type": "town",
    "lat": 47.3899205,
    "lon": 35.0028481,
    "region": "Запорізька область"
  },
  {
    "name": "Ширяєве",
    "type": "town",
    "lat": 47.3843482,
    "lon": 30.1895219,
    "region": "Одеська область"
  },
  {
    "name": "Балки",
    "type": "village",
    "lat": 47.38232,
    "lon": 34.93206,
    "region": "Запорізька область"
  },
  {
    "name": "Кам’янка",
    "type": "town",
    "lat": 47.3624,
    "lon": 36.65108,
    "region": "Запорізька область"
  },
  {
    "name": "Веселинове",
    "type": "town",
    "lat": 47.356307,
    "lon": 31.2367979,
    "region": "Миколаївська область"
  },
  {
    "name": "Захарівка",
    "type": "town",
    "lat": 47.3316351,
    "lon": 29.758089,
    "region": "Одеська область"
  },
  {
    "name": "Велика Олександрівка",
    "type": "town",
    "lat": 47.3159392,
    "lon": 33.2997671,
    "region": "Херсонська область"
  },
  {
    "name": "Березнегувате",
    "type": "town",
    "lat": 47.308722,
    "lon": 32.8486739,
    "region": "Миколаївська область"
  },
  {
    "name": "Нова Одеса",
    "type": "town",
    "lat": 47.310996,
    "lon": 31.7739735,
    "region": "Миколаївська область"
  },
  {
    "name": "Михайлівка",
    "type": "town",
    "lat": 47.2657187,
    "lon": 35.2217134,
    "region": "Запорізька область"
  },
  {
    "name": "Велика Білозерка",
    "type": "village",
    "lat": 47.26936,
    "lon": 34.684521,
    "region": "Запорізька область"
  },
  {
    "name": "Мала Білозерка",
    "type": "village",
    "lat": 47.24419,
    "lon": 34.939514,
    "region": "Запорізька область"
  },
  {
    "name": "Молочанськ",
    "type": "town",
    "lat": 47.20653,
    "lon": 35.59742,
    "region": "Запорізька область"
  },
  {
    "name": "Березівка",
    "type": "town",
    "lat": 47.2016391,
    "lon": 30.908595,
    "region": "Одеська область"
  },
  {
    "name": "Велика Лепетиха",
    "type": "town",
    "lat": 47.178599,
    "lon": 33.9428266,
    "region": "Херсонська область"
  },
  {
    "name": "Чернігівка",
    "type": "town",
    "lat": 47.19486,
    "lon": 36.2075,
    "region": "Запорізька область"
  },
  {
    "name": "Снігурівка",
    "type": "town",
    "lat": 47.070721,
    "lon": 32.7924643,
    "region": "Миколаївська область"
  },
  {
    "name": "Велика Михайлівка",
    "type": "town",
    "lat": 47.0775384,
    "lon": 29.8509409,
    "region": "Одеська область"
  },
  {
    "name": "Веселе",
    "type": "town",
    "lat": 47.0179164,
    "lon": 34.9211323,
    "region": "Запорізька область"
  },
  {
    "name": "Горностаївка",
    "type": "town",
    "lat": 47.00706,
    "lon": 33.7317445,
    "region": "Херсонська область"
  },
  {
    "name": "Мішково-Погорілове",
    "type": "village",
    "lat": 46.9981588,
    "lon": 32.1172962,
    "region": "Миколаївська область"
  },
  {
    "name": "Вознесенка",
    "type": "village",
    "lat": 46.870079,
    "lon": 35.463871,
    "region": "Запорізька область"
  },
  {
    "name": "Роздільна",
    "type": "town",
    "lat": 46.8546716,
    "lon": 30.0711363,
    "region": "Одеська область"
  },
  {
    "name": "Берислав",
    "type": "town",
    "lat": 46.8357749,
    "lon": 33.416743,
    "region": "Херсонська область"
  },
  {
    "name": "Костянтинівка",
    "type": "village",
    "lat": 46.833878,
    "lon": 35.425159,
    "region": "Запорізька область"
  },
  {
    "name": "Доброслав",
    "type": "town",
    "lat": 46.8193867,
    "lon": 30.943207,
    "region": "Одеська область"
  },
  {
    "name": "Любимівка",
    "type": "town",
    "lat": 46.8115514,
    "lon": 33.5646046,
    "region": "Херсонська область"
  },
  {
    "name": "Каховка",
    "type": "town",
    "lat": 46.8054626,
    "lon": 33.4817825,
    "region": "Херсонська область"
  },
  {
    "name": "Таврійськ",
    "type": "town",
    "lat": 46.7550442,
    "lon": 33.4248309,
    "region": "Херсонська область"
  },
  {
    "name": "Нова Каховка",
    "type": "town",
    "lat": 46.7583404,
    "lon": 33.3566678,
    "region": "Херсонська область"
  },
  {
    "name": "Приморськ",
    "type": "town",
    "lat": 46.7343149,
    "lon": 36.3472151,
    "region": "Запорізька область"
  },
  {
    "name": "Приазовське",
    "type": "town",
    "lat": 46.73,
    "lon": 35.63896,
    "region": "Запорізька область"
  },
  {
    "name": "Зеленівка",
    "type": "town",
    "lat": 46.7169962,
    "lon": 32.6485255,
    "region": "Херсонська область"
  },
  {
    "name": "Якимівка",
    "type": "town",
    "lat": 46.69636,
    "lon": 35.15522,
    "region": "Запорізька область"
  },
  {
    "name": "Чорнобаївка",
    "type": "village",
    "lat": 46.6926512,
    "lon": 32.5455178,
    "region": "Херсонська область"
  },
  {
    "name": "Антонівка",
    "type": "town",
    "lat": 46.679927,
    "lon": 32.7368083,
    "region": "Херсонська область"
  },
  {
    "name": "Білозерка",
    "type": "town",
    "lat": 46.63078,
    "lon": 32.44537,
    "region": "Херсонська область"
  },
  {
    "name": "Олешки",
    "type": "town",
    "lat": 46.6260908,
    "lon": 32.7220187,
    "region": "Херсонська область"
  },
  {
    "name": "Чорноморське",
    "type": "town",
    "lat": 46.5849122,
    "lon": 30.9334115,
    "region": "Одеська область"
  },
  {
    "name": "Дачне",
    "type": "village",
    "lat": 46.577221,
    "lon": 30.54817,
    "region": "Одеська область"
  },
  {
    "name": "Троїцьке",
    "type": "village",
    "lat": 46.546322,
    "lon": 30.00984,
    "region": "Одеська область"
  },
  {
    "name": "Нерубайське",
    "type": "village",
    "lat": 46.544624,
    "lon": 30.629803,
    "region": "Одеська область"
  },
  {
    "name": "Усатове",
    "type": "village",
    "lat": 46.537399,
    "lon": 30.654261,
    "region": "Одеська область"
  },
  {
    "name": "Гола Пристань",
    "type": "town",
    "lat": 46.5320381,
    "lon": 32.5345028,
    "region": "Херсонська область"
  },
  {
    "name": "Великі Копані",
    "type": "village",
    "lat": 46.488186,
    "lon": 32.978374,
    "region": "Херсонська область"
  },
  {
    "name": "Теплодар",
    "type": "town",
    "lat": 46.5050729,
    "lon": 30.3272329,
    "region": "Одеська область"
  },
  {
    "name": "Біляївка",
    "type": "town",
    "lat": 46.4844245,
    "lon": 30.2120913,
    "region": "Одеська область"
  },
  {
    "name": "Великий Дальник",
    "type": "village",
    "lat": 46.476292,
    "lon": 30.559851,
    "region": "Одеська область"
  },
  {
    "name": "Нова Збур’ївка",
    "type": "village",
    "lat": 46.4553259,
    "lon": 32.4524074,
    "region": "Херсонська область"
  },
  {
    "name": "Маяки",
    "type": "town",
    "lat": 46.416632,
    "lon": 30.2750575,
    "region": "Одеська область"
  },
  {
    "name": "Лиманка",
    "type": "town",
    "lat": 46.3731032,
    "lon": 30.690874,
    "region": "Одеська область"
  },
  {
    "name": "Чаплинка",
    "type": "town",
    "lat": 46.3617756,
    "lon": 33.5380219,
    "region": "Херсонська область"
  },
  {
    "name": "Новотроїцьке",
    "type": "town",
    "lat": 46.3558121,
    "lon": 34.3363579,
    "region": "Херсонська область"
  },
  {
    "name": "Великодолинське",
    "type": "town",
    "lat": 46.3467158,
    "lon": 30.5759542,
    "region": "Одеська область"
  },
  {
    "name": "Олександрівка",
    "type": "town",
    "lat": 46.3279486,
    "lon": 30.6312513,
    "region": "Одеська область"
  },
  {
    "name": "Чорноморськ",
    "type": "town",
    "lat": 46.3020943,
    "lon": 30.653466,
    "region": "Одеська область"
  },
  {
    "name": "Каланчак",
    "type": "town",
    "lat": 46.257184,
    "lon": 33.2843632,
    "region": "Херсонська область"
  },
  {
    "name": "Овідіополь",
    "type": "town",
    "lat": 46.2473734,
    "lon": 30.4448614,
    "region": "Одеська область"
  },
  {
    "name": "Новоолексіївка",
    "type": "town",
    "lat": 46.2277494,
    "lon": 34.6413868,
    "region": "Херсонська область"
  },
  {
    "name": "Випасне",
    "type": "village",
    "lat": 46.192848,
    "lon": 30.258345,
    "region": "Одеська область"
  },
  {
    "name": "Бессарабське",
    "type": "town",
    "lat": 46.1821786,
    "lon": 29.151948,
    "region": "Одеська область"
  },
  {
    "name": "Генічеськ",
    "type": "town",
    "lat": 46.1661695,
    "lon": 34.8088828,
    "region": "Херсонська область"
  },
  {
    "name": "Шабо",
    "type": "village",
    "lat": 46.128258,
    "lon": 30.386766,
    "region": "Одеська область"
  },
  {
    "name": "Скадовськ",
    "type": "town",
    "lat": 46.1203932,
    "lon": 32.910339,
    "region": "Херсонська область"
  },
  {
    "name": "Армянськ",
    "type": "town",
    "lat": 46.113261,
    "lon": 33.6904091,
    "region": "Автономна Республіка Крим"
  },
  {
    "name": "Плахтіївка",
    "type": "village",
    "lat": 46.094894,
    "lon": 29.715511,
    "region": "Одеська область"
  },
  {
    "name": "Сергіївка",
    "type": "town",
    "lat": 46.02756,
    "lon": 30.37273,
    "region": "Одеська область"
  },
  {
    "name": "Сарата",
    "type": "town",
    "lat": 46.0211575,
    "lon": 29.6629546,
    "region": "Одеська область"
  },
  {
    "name": "Арциз",
    "type": "town",
    "lat": 45.9962017,
    "lon": 29.431517,
    "region": "Одеська область"
  },
  {
    "name": "Камчик",
    "type": "village",
    "lat": 45.9918256,
    "lon": 29.6913364,
    "region": "Одеська область"
  },
  {
    "name": "Красноперекопськ",
    "type": "town",
    "lat": 45.9568404,
    "lon": 33.7974907,
    "region": "Автономна Республіка Крим"
  },
  {
    "name": "Городнє",
    "type": "village",
    "lat": 45.893669,
    "lon": 28.85216,
    "region": "Одеська область"
  },
  {
    "name": "Татарбунари",
    "type": "town",
    "lat": 45.8398696,
    "lon": 29.6166537,
    "region": "Одеська область"
  },
  {
    "name": "Кубей",
    "type": "village",
    "lat": 45.7907985,
    "lon": 28.7440113,
    "region": "Одеська область"
  },
  {
    "name": "Роздольне",
    "type": "town",
    "lat": 45.7683327,
    "lon": 33.489566,
    "region": "Автономна Республіка Крим"
  },
  {
    "name": "Болград",
    "type": "town",
    "lat": 45.6779137,
    "lon": 28.6132404,
    "region": "Одеська область"
  },
  {
    "name": "Шевченкове",
    "type": "village",
    "lat": 45.5545776,
    "lon": 29.3354405,
    "region": "Одеська область"
  },
  {
    "name": "Чорноморське",
    "type": "town",
    "lat": 45.508597,
    "lon": 32.707775,
    "region": "Автономна Республіка Крим"
  },
  {
    "name": "Петрівка",
    "type": "village",
    "lat": 45.503037,
    "lon": 34.2855787,
    "region": "Автономна Республіка Крим"
  },
  {
    "name": "Красногвардійське",
    "type": "town",
    "lat": 45.4959593,
    "lon": 34.2950929,
    "region": "Автономна Республіка Крим"
  },
  {
    "name": "Рені",
    "type": "town",
    "lat": 45.455413,
    "lon": 28.2790948,
    "region": "Одеська область"
  },
  {
    "name": "Кілія",
    "type": "town",
    "lat": 45.4409767,
    "lon": 29.2652788,
    "region": "Одеська область"
  },
  {
    "name": "Нижньогірський",
    "type": "town",
    "lat": 45.4430256,
    "lon": 34.7384352,
    "region": "Автономна Республіка Крим"
  },
  {
    "name": "Озерне",
    "type": "village",
    "lat": 45.4061396,
    "lon": 28.6718685,
    "region": "Одеська область"
  },
  {
    "name": "Вилкове",
    "type": "town",
    "lat": 45.40306,
    "lon": 29.58309,
    "region": "Одеська область"
  },
  {
    "name": "Совєтський",
    "type": "town",
    "lat": 45.3458907,
    "lon": 34.9235341,
    "region": "Автономна Республіка Крим"
  },
  {
    "name": "Ізмаїл",
    "type": "town",
    "lat": 45.3511307,
    "lon": 28.8361514,
    "region": "Одеська область"
  },
  {
    "name": "Октябрьське",
    "type": "town",
    "lat": 45.2931604,
    "lon": 34.128563,
    "region": "Автономна Республіка Крим"
  },
  {
    "name": "Кіровське",
    "type": "town",
    "lat": 45.2306487,
    "lon": 35.201075,
    "region": "Автономна Республіка Крим"
  },
  {
    "name": "Саки",
    "type": "town",
    "lat": 45.1319466,
    "lon": 33.6001281,
    "region": "Автономна Республіка Крим"
  },
  {
    "name": "Приморський",
    "type": "town",
    "lat": 45.1191428,
    "lon": 35.4815631,
    "region": "Автономна Республіка Крим"
  },
  {
    "name": "Новофедорівка",
    "type": "town",
    "lat": 45.0943138,
    "lon": 33.5752494,
    "region": "Автономна Республіка Крим"
  },
  {
    "name": "Білогорськ",
    "type": "town",
    "lat": 45.0584385,
    "lon": 34.594959,
    "region": "Автономна Республіка Крим"
  },
  {
    "name": "Зуя",
    "type": "town",
    "lat": 45.0548485,
    "lon": 34.3225748,
    "region": "Автономна Республіка Крим"
  },
  {
    "name": "Старий Крим",
    "type": "town",
    "lat": 45.0293926,
    "lon": 35.0881549,
    "region": "Автономна Республіка Крим"
  },
  {
    "name": "Аграрне",
    "type": "town",
    "lat": 45.0160039,
    "lon": 34.0487769,
    "region": "Автономна Республіка Крим"
  },
  {
    "name": "Гресівський",
    "type": "town",
    "lat": 45.0101779,
    "lon": 34.0264874,
    "region": "Автономна Республіка Крим"
  },
  {
    "name": "Молодіжне",
    "type": "town",
    "lat": 45.0068123,
    "lon": 34.0676622,
    "region": "Автономна Республіка Крим"
  },
  {
    "name": "Мирне",
    "type": "village",
    "lat": 44.9794,
    "lon": 34.06517,
    "region": "Автономна Республіка Крим"
  },
  {
    "name": "Піонерське",
    "type": "village",
    "lat": 44.8826561,
    "lon": 34.1980941,
    "region": "Автономна Республіка Крим"
  },
  {
    "name": "Вилино",
    "type": "village",
    "lat": 44.8435414,
    "lon": 33.6622373,
    "region": "Автономна Республіка Крим"
  },
  {
    "name": "Кача",
    "type": "town",
    "lat": 44.7755079,
    "lon": 33.5437538,
    "region": "Севастополь"
  },
  {
    "name": "Инкерман",
    "type": "town",
    "lat": 44.6181043,
    "lon": 33.6043271,
    "region": "Севастополь"
  },
  {
    "name": "Партеніт",
    "type": "town",
    "lat": 44.58183,
    "lon": 34.34292,
    "region": "Автономна Республіка Крим"
  },
  {
    "name": "Гурзуф",
    "type": "town",
    "lat": 44.5479215,
    "lon": 34.2736976,
    "region": "Автономна Республіка Крим"
  },
  {
    "name": "Масандра",
    "type": "town",
    "lat": 44.5087776,
    "lon": 34.1886781,
    "region": "Автономна Республіка Крим"
  },
  {
    "name": "Кореїз",
    "type": "town",
    "lat": 44.4341131,
    "lon": 34.0919813,
    "region": "Автономна Республіка Крим"
  },
  {
    "name": "Гаспра",
    "type": "town",
    "lat": 44.4356415,
    "lon": 34.1027932,
    "region": "Автономна Республіка Крим"
  },
  {
    "name": "Чернівці",
    "type": "city",
    "lat": 48.2864702,
    "lon": 25.9376532,
    "region": "Чернівецька область"
  },
  {
    "name": "Канів",
    "type": "town",
    "lat": 49.7551031,
    "lon": 31.4610802,
    "region": "Черкаська область"
  },
  {
    "name": "Тараща",
    "type": "town",
    "lat": 49.555498,
    "lon": 30.5023421,
    "region": "Київська область"
  },
  {
    "name": "Полонне",
    "type": "town",
    "lat": 50.1193439,
    "lon": 27.5089702,
    "region": "Хмельницька область"
  },
  {
    "name": "Білгород-Дністровський",
    "type": "town",
    "lat": 46.1909823,
    "lon": 30.345784,
    "region": "Одеська область"
  },
  {
    "name": "Старокозаче",
    "type": "village",
    "lat": 46.337597,
    "lon": 29.986652,
    "region": "Одеська область"
  },
  {
    "name": "Пантелеймонівка",
    "type": "town",
    "lat": 48.2071448,
    "lon": 37.9729054,
    "region": "Донецька область"
  },
  {
    "name": "Солотвино",
    "type": "town",
    "lat": 47.9470202,
    "lon": 23.8747013,
    "region": "Закарпатська область"
  },
  {
    "name": "Рогань",
    "type": "town",
    "lat": 49.9035,
    "lon": 36.479103,
    "region": "Харківська область"
  },
  {
    "name": "Буштино",
    "type": "town",
    "lat": 48.0486521,
    "lon": 23.4862834,
    "region": "Закарпатська область"
  },
  {
    "name": "Козятин",
    "type": "town",
    "lat": 49.7195867,
    "lon": 28.8354279,
    "region": "Вінницька область"
  },
  {
    "name": "Золотоноша",
    "type": "town",
    "lat": 49.6689719,
    "lon": 32.0427439,
    "region": "Черкаська область"
  },
  {
    "name": "Прилуки",
    "type": "town",
    "lat": 50.5950864,
    "lon": 32.3866658,
    "region": "Чернігівська область"
  },
  {
    "name": "Новоозерне",
    "type": "town",
    "lat": 45.3837166,
    "lon": 33.1170303,
    "region": "Автономна Республіка Крим"
  },
  {
    "name": "Березне",
    "type": "town",
    "lat": 51.0035653,
    "lon": 26.7524487,
    "region": "Рівненська область"
  },
  {
    "name": "Сватове",
    "type": "town",
    "lat": 49.4176663,
    "lon": 38.1456729,
    "region": "Луганська область"
  },
  {
    "name": "Золочів",
    "type": "town",
    "lat": 49.8056522,
    "lon": 24.8988858,
    "region": "Львівська область"
  },
  {
    "name": "Корець",
    "type": "town",
    "lat": 50.6194566,
    "lon": 27.159712,
    "region": "Рівненська область"
  },
  {
    "name": "Макарів",
    "type": "town",
    "lat": 50.4639897,
    "lon": 29.8068986,
    "region": "Київська область"
  },
  {
    "name": "Кривий Ріг",
    "type": "city",
    "lat": 47.9102734,
    "lon": 33.3917703,
    "region": "Дніпропетровська область"
  },
  {
    "name": "Пологи",
    "type": "town",
    "lat": 47.4784803,
    "lon": 36.2531412,
    "region": "Запорізька область"
  },
  {
    "name": "Токмак",
    "type": "town",
    "lat": 47.2550191,
    "lon": 35.7092206,
    "region": "Запорізька область"
  },
  {
    "name": "Димер",
    "type": "town",
    "lat": 50.7863705,
    "lon": 30.3036843,
    "region": "Київська область"
  },
  {
    "name": "Південне",
    "type": "town",
    "lat": 46.6225029,
    "lon": 31.0994897,
    "region": "Одеська область"
  },
  {
    "name": "Верхній Рогачик",
    "type": "town",
    "lat": 47.2569402,
    "lon": 34.3339303,
    "region": "Херсонська область"
  },
  {
    "name": "Корсунь-Шевченківський",
    "type": "town",
    "lat": 49.418037,
    "lon": 31.2556741,
    "region": "Черкаська область"
  },
  {
    "name": "Зимна Вода",
    "type": "village",
    "lat": 49.824806,
    "lon": 23.886192,
    "region": "Львівська область"
  },
  {
    "name": "Лебедин",
    "type": "town",
    "lat": 50.5809626,
    "lon": 34.4753069,
    "region": "Сумська область"
  },
  {
    "name": "Зеленодольськ",
    "type": "town",
    "lat": 47.5668051,
    "lon": 33.6474574,
    "region": "Дніпропетровська область"
  },
  {
    "name": "Тернопіль",
    "type": "city",
    "lat": 49.5557908,
    "lon": 25.5923753,
    "region": "Тернопільська область"
  },
  {
    "name": "Харків",
    "type": "city",
    "lat": 49.9923181,
    "lon": 36.2310146,
    "region": "Харківська область"
  },
  {
    "name": "Мерефа",
    "type": "town",
    "lat": 49.8183386,
    "lon": 36.0628675,
    "region": "Харківська область"
  },
  {
    "name": "Копичинці",
    "type": "town",
    "lat": 49.1068616,
    "lon": 25.9085276,
    "region": "Тернопільська область"
  },
  {
    "name": "Хмільник",
    "type": "town",
    "lat": 49.556175,
    "lon": 27.9491205,
    "region": "Вінницька область"
  },
  {
    "name": "Гуляйполе",
    "type": "town",
    "lat": 47.6655382,
    "lon": 36.2656849,
    "region": "Запорізька область"
  },
  {
    "name": "Стрижавка",
    "type": "town",
    "lat": 49.3097584,
    "lon": 28.4730593,
    "region": "Вінницька область"
  },
  {
    "name": "Борова",
    "type": "town",
    "lat": 49.3838133,
    "lon": 37.6330137,
    "region": "Харківська область"
  },
  {
    "name": "Кам’янське",
    "type": "city",
    "lat": 48.5167748,
    "lon": 34.6068797,
    "region": "Дніпропетровська область"
  },
  {
    "name": "Єнакієве",
    "type": "town",
    "lat": 48.2305107,
    "lon": 38.185045,
    "region": "Донецька область"
  },
  {
    "name": "Мелітополь",
    "type": "city",
    "lat": 46.8467267,
    "lon": 35.3827281,
    "region": "Запорізька область"
  },
  {
    "name": "Новий Буг",
    "type": "town",
    "lat": 47.6933814,
    "lon": 32.5106596,
    "region": "Миколаївська область"
  },
  {
    "name": "Погребище",
    "type": "town",
    "lat": 49.4848166,
    "lon": 29.2579157,
    "region": "Вінницька область"
  },
  {
    "name": "Кагарлик",
    "type": "town",
    "lat": 49.8650658,
    "lon": 30.8226786,
    "region": "Київська область"
  },
  {
    "name": "Феодосія",
    "type": "town",
    "lat": 45.033669,
    "lon": 35.3753628,
    "region": "Автономна Республіка Крим"
  },
  {
    "name": "Керч",
    "type": "city",
    "lat": 45.3563405,
    "lon": 36.467061,
    "region": "Автономна Республіка Крим"
  },
  {
    "name": "Ялта",
    "type": "town",
    "lat": 44.4970713,
    "lon": 34.1586871,
    "region": "Автономна Республіка Крим"
  },
  {
    "name": "Добропілля",
    "type": "town",
    "lat": 48.4683035,
    "lon": 37.0903243,
    "region": "Донецька область"
  },
  {
    "name": "Короп",
    "type": "town",
    "lat": 51.5671394,
    "lon": 32.9520532,
    "region": "Чернігівська область"
  },
  {
    "name": "Руська Поляна",
    "type": "village",
    "lat": 49.4243008,
    "lon": 31.9147632,
    "region": "Черкаська область"
  },
  {
    "name": "Зугрес",
    "type": "town",
    "lat": 48.0181156,
    "lon": 38.2699093,
    "region": "Донецька область"
  },
  {
    "name": "Фонтанка",
    "type": "village",
    "lat": 46.570198,
    "lon": 30.858065,
    "region": "Одеська область"
  },
  {
    "name": "Опішня",
    "type": "town",
    "lat": 49.9570715,
    "lon": 34.6090906,
    "region": "Полтавська область"
  },
  {
    "name": "Зміїв",
    "type": "town",
    "lat": 49.7019133,
    "lon": 36.3633323,
    "region": "Харківська область"
  },
  {
    "name": "Ровеньки",
    "type": "town",
    "lat": 48.0897987,
    "lon": 39.368029,
    "region": "Луганська область"
  },
  {
    "name": "Лиманське",
    "type": "town",
    "lat": 46.6618481,
    "lon": 29.9760782,
    "region": "Одеська область"
  },
  {
    "name": "Старомихайлівка",
    "type": "town",
    "lat": 48.0001996,
    "lon": 37.583087,
    "region": "Донецька область"
  },
  {
    "name": "Алупка",
    "type": "town",
    "lat": 44.4204046,
    "lon": 34.0483715,
    "region": "Автономна Республіка Крим"
  },
  {
    "name": "Гайворон",
    "type": "town",
    "lat": 48.3370533,
    "lon": 29.868633,
    "region": "Вінницька область"
  },
  {
    "name": "Гвардійське",
    "type": "town",
    "lat": 45.1157294,
    "lon": 34.0239034,
    "region": "Автономна Республіка Крим"
  },
  {
    "name": "Христинівка",
    "type": "town",
    "lat": 48.812969,
    "lon": 29.9677872,
    "region": "Черкаська область"
  },
  {
    "name": "Хрестівка",
    "type": "town",
    "lat": 48.1456309,
    "lon": 38.3545249,
    "region": "Донецька область"
  },
  {
    "name": "Нова Маячка",
    "type": "town",
    "lat": 46.5966167,
    "lon": 33.2214167,
    "region": "Херсонська область"
  },
  {
    "name": "Щастя",
    "type": "town",
    "lat": 48.737653,
    "lon": 39.2350478,
    "region": "Луганська область"
  },
  {
    "name": "Зарічне",
    "type": "town",
    "lat": 51.811589,
    "lon": 26.1283792,
    "region": "Рівненська область"
  },
  {
    "name": "Бровари",
    "type": "city",
    "lat": 50.5111168,
    "lon": 30.7900482,
    "region": "Київська область"
  },
  {
    "name": "Сколе",
    "type": "town",
    "lat": 49.0378559,
    "lon": 23.5140979,
    "region": "Львівська область"
  },
  {
    "name": "Кропивницький",
    "type": "city",
    "lat": 48.5105805,
    "lon": 32.2656283,
    "region": "Кіровоградська область"
  },
  {
    "name": "Голубівка",
    "type": "town",
    "lat": 48.6414116,
    "lon": 38.6478649,
    "region": "Луганська область"
  },
  {
    "name": "Калинівка",
    "type": "town",
    "lat": 49.4583688,
    "lon": 28.5262638,
    "region": "Вінницька область"
  },
  {
    "name": "Миронівка",
    "type": "town",
    "lat": 49.6583412,
    "lon": 30.9824887,
    "region": "Київська область"
  },
  {
    "name": "Гольмівський",
    "type": "town",
    "lat": 48.4043865,
    "lon": 38.0884035,
    "region": "Донецька область"
  },
  {
    "name": "Братське",
    "type": "town",
    "lat": 47.8641873,
    "lon": 31.5747875,
    "region": "Миколаївська область"
  },
  {
    "name": "Довге",
    "type": "village",
    "lat": 48.3663354,
    "lon": 23.2809513,
    "region": "Закарпатська область"
  }
]